{"name":"Cities","children":[{"name":"Boston","location":{"lat":42.358431,"lng":-71.059773},"yearly":[{"year":"1990","patent":2051},{"year":"1991","patent":2092},{"year":"1992","patent":2310},{"year":"1993","patent":2343},{"year":"1994","patent":2476},{"year":"1995","patent":2318},{"year":"1996","patent":2588},{"year":"1997","patent":2747},{"year":"1998","patent":3688},{"year":"1999","patent":3806},{"year":"2006","creativeOccupationTotal":10145,"creativeOccupationPercentage":0.034068661},{"year":"2007","creativeOccupationTotal":8782,"creativeOccupationPercentage":0.027963077},{"year":"2008","creativeOccupationTotal":9270,"creativeOccupationPercentage":0.02834611},{"year":"2009","creativeOccupationTotal":12108,"creativeOccupationPercentage":0.034824225},{"year":"2010","creativeOccupationTotal":11261,"creativeOccupationPercentage":0.035384132},{"year":"2011","creativeOccupationTotal":9807,"creativeOccupationPercentage":0.030983726},{"year":"2012","creativeOccupationTotal":9833,"creativeOccupationPercentage":0.029612921}],"children":[{"name":"","location":{"lat":20.6462529,"lng":-103.3229039},"children":[{"name":"School","size":0,"children":[]},{"name":"Company","size":0,"children":[]},{"name":"Food","size":7,"children":[]}]},{"name":"0","location":{"lat":22.3221536,"lng":114.1876493},"children":[{"name":"School","size":0,"children":[]},{"name":"Company","size":0,"children":[]},{"name":"Food","size":1,"children":[{"name":"Summer Shack","city":"BOSTON","location":[-71.0587,42.3594]}]}]},{"name":"02108","location":{"lat":42.3548561,"lng":-71.0661193},"children":[{"name":"School","size":0,"children":[]},{"name":"Company","size":9,"children":[]},{"name":"Food","size":48,"children":[{"name":"AFC Sushi @ Shaw's #586","city":"Mattapan","location":[-71.069999,42.271841]},{"name":"AFC Sushi @ Walgreens #15390","city":"Boston","location":[-71.058968,42.357327]},{"name":"Archie's Place","city":"Boston","location":[-71.058215,42.357884]},{"name":"BCG@ ORPHEUM THEATRE","city":"Boston","location":[-71.060994,42.356225]},{"name":"Beantown Pub","city":"Boston","location":[-71.060979,42.357232]},{"name":"Big Guy's Cafe & Grill Inc.","city":"Boston","location":[-71.05866,42.35952]},{"name":"BOURBON ST. CAFE","city":"Boston","location":[-71.0604,42.35583]},{"name":"BRUEGGER'S BAGEL BAKERY # 274","city":"Boston","location":[-71.058461,42.357552]},{"name":"Burger King","city":"BOSTON","location":[-71.0587,42.3594]},{"name":"Burger King","city":"Boston","location":[-71.06185,42.35629]},{"name":"CAFE ESPLANADE","city":"Boston","location":[-71.074207,42.355594]},{"name":"Cafe Hemsin","city":"Boston","location":[-71.058998,42.357965]},{"name":"Casserole Cafe","city":"Boston","location":[-71.060325,42.355889]},{"name":"Cheeseboy: Grilled Cheese To Go","city":"Boston","location":[-71.0587,42.3594]},{"name":"Chipotle Mexican Grille","city":"Boston","location":[-71.058423,42.357563]},{"name":"Cocobeet","city":"Boston","location":[-71.05875,42.359529]},{"name":"Dunkin Donuts","city":"Boston","location":[-71.061879,42.356395]},{"name":"Dunkin Donuts","city":"Boston","location":[-71.0604,42.35583]},{"name":"Dunkin' Donuts","city":"Boston","location":[-71.062899,42.357706]},{"name":"Dunkin' Donuts","city":"Boston","location":[-71.058161,42.358127]},{"name":"Falafel King","city":"Boston","location":[-71.05784,42.35774]},{"name":"FILL A BUSTER","city":"Boston","location":[-71.06258,42.35857]},{"name":"Finagle A Bagel","city":"BOSTON","location":[-71.0587,42.3594]},{"name":"Fresh Mango","city":"Boston","location":[-71.06045,42.3567]},{"name":"Fro-zen-yo","city":"Boston","location":[-71.058386,42.357616]},{"name":"Mcdonalds","city":"Boston","location":[-71.059182,42.35705]},{"name":"Mcdonalds","city":"Boston","location":[-71.0604,42.35582]},{"name":"METRO SUBWAY INC.","city":"Boston","location":[-71.0604,42.35583]},{"name":"Peet's Coffee & Tea","city":"Boston","location":[-71.061937,42.356217]},{"name":"Piperi Restaurant","city":"Boston","location":[-71.06084,42.35845]},{"name":"PIZZERIA RICO","city":"BOSTON","location":[-71.0587,42.3594]},{"name":"PROVINCE PLACE","city":"Boston","location":[-71.059919,42.356871]},{"name":"Rebecca's Cafe Inc.","city":"Boston","location":[-71.06084,42.35845]},{"name":"SALSAS MEXICAN GRILL","city":"Boston","location":[-71.0604,42.35582]},{"name":"Sarku Japan","city":"Boston","location":[-71.0604,42.35583]},{"name":"Shawarma Falafel","city":"Boston","location":[-71.059651,42.357172]},{"name":"Sodexo at BNY Mellon-One Boston Taste(15th fl)","city":"Boston","location":[-71.05837,42.35852]},{"name":"Starbucks Coffee # 7531","city":"Boston","location":[-71.06107,42.35557]},{"name":"Starbucks Coffee # 7535","city":"Boston","location":[-71.05896,42.3577]},{"name":"Starbucks Coffee # 801","city":"BOSTON","location":[-71.0587,42.3594]},{"name":"Starbucks Coffee # 883","city":"Boston","location":[-71.059193,42.359381]},{"name":"Subway","city":"Boston","location":[-71.05875,42.359529]},{"name":"Subway","city":"Boston","location":[-71.05784,42.35774]},{"name":"SUSHI TIME","city":"Boston","location":[-71.0604,42.35583]},{"name":"THAI ACCENT","city":"Boston","location":[-71.0604,42.35583]},{"name":"Viga Italian Eatery","city":"Boston","location":[-71.058248,42.357825]},{"name":"Walgreens","city":"Boston","location":[-71.058968,42.357327]},{"name":"WONGS","city":"Boston","location":[-71.0604,42.35583]}]}]},{"name":"02109","location":{"lat":42.36606159999999,"lng":-71.0482911},"children":[{"name":"School","size":0,"children":[]},{"name":"Company","size":2,"children":[]},{"name":"Food","size":73,"children":[{"name":"68 Chinese Fast Food","city":"Boston","location":[-71.061898,42.355863]},{"name":"Al Mercatino","city":"BOSTON","location":[-71.0587,42.3594]},{"name":"AL'S STATE ST. CAFE","city":"BOSTON","location":[-71.0587,42.3594]},{"name":"ANTHONY'S CAFE","city":"Boston","location":[-71.05137,42.36399]},{"name":"ARIS BARBEQUE","city":"BOSTON","location":[-71.0587,42.3594]},{"name":"Au Bon Pain","city":"Boston","location":[-71.056199,42.35875]},{"name":"Au Bon Pain Kiosk (1st Fl.)","city":"Boston","location":[-71.056199,42.35875]},{"name":"Bagelville Inc.","city":"Boston","location":[-71.0587,42.3594]},{"name":"Bailey & Sage","city":"Boston","location":[-71.05512,42.35896]},{"name":"Bangkok Express","city":"Boston","location":[-71.0587,42.3594]},{"name":"Banh Mi House","city":"Boston","location":[-71.061898,42.355863]},{"name":"Beantown Hoagie","city":"Boston","location":[-71.055079,42.35806]},{"name":"Boloco","city":"BOSTON","location":[-71.0587,42.3594]},{"name":"Boloco","city":"Boston","location":[-71.05599,42.35798]},{"name":"BOSTON & MAINE FISH CO.","city":"Boston","location":[-71.0587,42.3594]},{"name":"Boston Chowda Co.","city":"BOSTON","location":[-71.0587,42.3594]},{"name":"Boston Pretzel Bakery","city":"Boston","location":[-71.0587,42.3594]},{"name":"Cafe Dino","city":"Boston","location":[-71.054578,42.357262]},{"name":"CAROL ANN BAKE SHOP","city":"Boston","location":[-71.0587,42.3594]},{"name":"Casa Razbora","city":"Boston","location":[-71.05461,42.35805]},{"name":"Crush Pizza","city":"Boston","location":[-71.054927,42.35902]},{"name":"Dog House","city":"BOSTON","location":[-71.0587,42.3594]},{"name":"DUNKIN DONUT","city":"BOSTON","location":[-71.0587,42.3594]},{"name":"Dunkin Donuts","city":"BOSTON","location":[-71.0587,42.3594]},{"name":"DUNKIN' DONUTS","city":"CHARLESTOWN","location":[-71.0587,42.3594]},{"name":"DUNKIN DONUTS'","city":"Boston","location":[-71.056346,42.360691]},{"name":"DUNKIN' DONUTS-WATERMARK","city":"Boston","location":[-71.054823,42.359035]},{"name":"El Paso Enchiladas","city":"BOSTON","location":[-71.0587,42.3594]},{"name":"Emack & Bolio's","city":"Boston","location":[-71.051129,42.359417]},{"name":"Falafel King","city":"Boston","location":[-71.061898,42.355863]},{"name":"Fisherman's Net","city":"BOSTON","location":[-71.0587,42.3594]},{"name":"Flame Cafe","city":"Boston","location":[-71.054578,42.357262]},{"name":"Flat Black Coffee Co.  Ltd.","city":"Boston","location":[-71.05376,42.358]},{"name":"FLIK INTERNATIONAL","city":"Boston","location":[-71.05643,42.35927]},{"name":"GOURMET INDIA","city":"Boston","location":[-71.0587,42.3594]},{"name":"Grasshopper Creamery","city":"Boston","location":[-71.056245,42.360028]},{"name":"HAYMARKET PIZZA","city":"BOSTON","location":[-71.0587,42.3594]},{"name":"Jen Lai Noodle and Rice Co.","city":"BOSTON","location":[-71.0587,42.3594]},{"name":"JOEY'S FUN FOODS","city":"Boston","location":[-71.0587,42.3594]},{"name":"La Pastaria","city":"BOSTON","location":[-71.0587,42.3594]},{"name":"MAX'S DELI CAFE","city":"BOSTON","location":[-71.0587,42.3594]},{"name":"MEGUMI OF JAPAN","city":"BOSTON","location":[-71.0587,42.3594]},{"name":"Mirabella Pool Concession","city":"Boston","location":[-71.055051,42.368749]},{"name":"MMMAC N' CHEESE","city":"BOSTON","location":[-71.0587,42.3594]},{"name":"New York Deli","city":"BOSTON","location":[-71.0587,42.3594]},{"name":"OLIVER'S ST CAFE","city":"Boston","location":[-71.05399,42.35693]},{"name":"Parkside Cafe 2","city":"Boston","location":[-71.054981,42.356797]},{"name":"Pavia","city":"Boston","location":[-71.05628,42.357708]},{"name":"Philadelphia Steak & Hoagie","city":"Boston","location":[-71.0587,42.3594]},{"name":"Piadina Cafe","city":"Boston","location":[-71.05534,42.35863]},{"name":"Pita Thyme","city":"Boston","location":[-71.05486,42.35819]},{"name":"Prime Shoppe","city":"Boston","location":[-71.0587,42.3594]},{"name":"Quincy's Place","city":"Boston","location":[-71.0587,42.3594]},{"name":"Red Barn Coffee Roasters (FHSq.)","city":"Boston","location":[-71.056245,42.360028]},{"name":"Regina's (up)","city":"BOSTON","location":[-71.0587,42.3594]},{"name":"SIP","city":"Boston","location":[-71.054981,42.356797]},{"name":"Sprinkle's Ice Cream","city":"Boston","location":[-71.0587,42.3594]},{"name":"STARBUCKS COFFEE # 862","city":"BOSTON","location":[-71.0587,42.3594]},{"name":"Starbucks Coffee #9463","city":"Boston","location":[-71.055738,42.359133]},{"name":"Starbucks Coffee Co. #875","city":"Boston","location":[-71.057656,42.358088]},{"name":"STARBUCKS COFFEE KIOSK","city":"Boston","location":[-71.05091,42.36012]},{"name":"State Street Express @MBTA State St. Line","city":"Boston","location":[-71.057477,42.358721]},{"name":"Steve's Greek Cuisine Inc.","city":"Boston","location":[-71.0587,42.3594]},{"name":"Subway","city":"Boston","location":[-71.05414,42.35772]},{"name":"SULTAN'S KITCHEN","city":"Boston","location":[-71.054864,42.359299]},{"name":"TASTE OF THE TOWN","city":"BOSTON","location":[-71.0587,42.3594]},{"name":"Tenoch Mexican","city":"Boston","location":[-71.05188,42.36328]},{"name":"The Berry Twist","city":"BOSTON","location":[-71.0587,42.3594]},{"name":"The Monkey Bar","city":"Boston","location":[-71.0587,42.3594]},{"name":"Ueno Sushi","city":"BOSTON","location":[-71.0587,42.3594]},{"name":"WEST END STROLLERS","city":"BOSTON","location":[-71.0587,42.3594]},{"name":"Zo","city":"BOSTON","location":[-71.0587,42.3594]},{"name":"Zo","city":"Boston","location":[-71.05532,42.359232]}]}]},{"name":"02110","location":{"lat":42.3613114,"lng":-71.0482911},"children":[{"name":"School","size":0,"children":[]},{"name":"Company","size":4,"children":[]},{"name":"Food","size":56,"children":[{"name":"AL CAPONE","city":"Boston","location":[-71.05813,42.35402]},{"name":"ARCHIE'S NEW YORK DELI","city":"Boston","location":[-71.059128,42.355042]},{"name":"Au Bon Pain","city":"BOSTON","location":[-71.0587,42.3594]},{"name":"Au Bon Pain Store # 44","city":"BOSTON","location":[-71.0587,42.3594]},{"name":"Au Bon Pain Store 511","city":"Boston","location":[-71.055941,42.350021]},{"name":"Boloco","city":"Boston","location":[-71.05391,42.354845]},{"name":"Boloco","city":"Boston","location":[-71.0566,42.35426]},{"name":"Boloco-Atlantic Wharf","city":"Boston","location":[-71.0587,42.3594]},{"name":"Boston Common Coffee Co.","city":"Boston","location":[-71.056728,42.353511]},{"name":"Boston Kitchen","city":"BOSTON","location":[-71.0587,42.3594]},{"name":"Boston News Cafe (90 Arch St.)","city":"Boston","location":[-71.058368,42.354732]},{"name":"Bruegger's","city":"Boston","location":[-71.058509,42.353733]},{"name":"Chacarero","city":"Boston","location":[-71.059128,42.355042]},{"name":"Cosi","city":"Boston","location":[-71.053595,42.355179]},{"name":"Cosi (Kiosk)","city":"Boston","location":[-71.053133,42.355263]},{"name":"Deli One","city":"BOSTON","location":[-71.0587,42.3594]},{"name":"Dunkin Donuts","city":"Boston","location":[-71.05422,42.35449]},{"name":"Dunkin Donuts","city":"BOSTON","location":[-71.0587,42.3594]},{"name":"Dunkin' Donuts","city":"Boston","location":[-71.072351,42.356918]},{"name":"Dunkin Donuts Kiosk","city":"Boston","location":[-71.055941,42.350021]},{"name":"DUNKIN DONUTS(FRANKLIN)","city":"Boston","location":[-71.05332,42.35651]},{"name":"DUNKIN'DONUTS/WATERMARK","city":"Boston","location":[-71.05824,42.35362]},{"name":"Foumami","city":"Boston","location":[-71.0587,42.3594]},{"name":"Grass Roots Cafe","city":"Boston","location":[-71.0587,42.355]},{"name":"Guckenheimer/Wellington Management(31st Fl)","city":"Boston","location":[-71.0587,42.3594]},{"name":"Guru The Caterer","city":"Boston","location":[-71.057564,42.355943]},{"name":"Lanta Asian Cuisine","city":"Boston","location":[-71.053939,42.357589]},{"name":"MASTER WOK","city":"Boston","location":[-71.055389,42.351914]},{"name":"McDonald's","city":"Boston","location":[-71.055941,42.350021]},{"name":"MEDITERRANEAN GRILL","city":"Boston","location":[-71.05306,42.35693]},{"name":"METRO SUBWAY INC.","city":"Boston","location":[-71.053548,42.356984]},{"name":"Nunzio's Pizzeria","city":"Boston","location":[-71.052618,42.359176]},{"name":"O! Deli","city":"Boston","location":[-71.05226,42.35672]},{"name":"Potbelly Sandwich Shop","city":"Boston","location":[-71.05695,42.3561]},{"name":"Pret A Manger (185 Franklin St.)","city":"Boston","location":[-71.05482,42.3554]},{"name":"Rebecca's Cafe","city":"Boston","location":[-71.05804,42.3562]},{"name":"Samurai Kuang Eatery","city":"Boston","location":[-71.058451,42.355795]},{"name":"Scali Deli Cafe","city":"Boston","location":[-71.053679,42.35457]},{"name":"Siam Bistro","city":"Boston","location":[-71.05363,42.35453]},{"name":"Squeeze Cafe & Juice Bar","city":"Boston","location":[-71.054068,42.356135]},{"name":"STARBUCKS COFFEE","city":"Boston","location":[-71.05695,42.3561]},{"name":"Starbucks Coffee # 7805","city":"Boston","location":[-71.051804,42.35635]},{"name":"Starbucks Coffee # 869","city":"Boston","location":[-71.05659,42.35492]},{"name":"Starbucks Coffee #7550","city":"BOSTON","location":[-71.0587,42.3594]},{"name":"Starbucks Coffee (Rowes Whart)","city":"Boston","location":[-71.0587,42.3594]},{"name":"Starbucks Coffee (South Station)","city":"Boston","location":[-71.055941,42.350021]},{"name":"Subway","city":"Boston","location":[-71.05402,42.355037]},{"name":"Subway (76 Summer St.)","city":"Boston","location":[-71.05822,42.35405]},{"name":"Surf City Squeeze","city":"Boston","location":[-71.055941,42.350021]},{"name":"SUSAN'S DELI OF COURSE","city":"Boston","location":[-71.05385,42.35757]},{"name":"The Landing","city":"Boston","location":[-71.050295,42.36014]},{"name":"Viga","city":"Boston","location":[-71.057948,42.354147]},{"name":"Viga (133 Pearl Street)","city":"Boston","location":[-71.05384,42.35474]},{"name":"Viga-The Deck @ Digitas Co.","city":"Boston","location":[-71.05804,42.3562]},{"name":"WENDY'S OLD FASHIONED HAMBURE","city":"Boston","location":[-71.05898,42.35412]},{"name":"WILD GREENS","city":"Boston","location":[-71.05613,42.35477]}]}]},{"name":"02111","location":{"lat":42.3514653,"lng":-71.0601767},"children":[{"name":"School","size":1,"children":[]},{"name":"Company","size":0,"children":[]},{"name":"Food","size":57,"children":[{"name":"Al's South St. Express","city":"Boston","location":[-71.057585,42.352051]},{"name":"AMC Theatres Boston Common 19","city":"Boston","location":[-71.06403,42.35315]},{"name":"AUNTIE ANNE'S (#MA 110)","city":"Boston","location":[-71.0587,42.3594]},{"name":"Avana Express Bar","city":"Boston","location":[-71.061017,42.351624]},{"name":"Avana Market Place","city":"Boston","location":[-71.060968,42.351664]},{"name":"Bean & Leaf Cafe","city":"Boston","location":[-71.053058,42.358135]},{"name":"Beijing Kyoto","city":"Boston","location":[-71.05713,42.351]},{"name":"BEST BARBECUE KITCHEN","city":"BOSTON","location":[-71.0587,42.3594]},{"name":"Boston Common Coffee Co.","city":"Boston","location":[-71.06218,42.35443]},{"name":"Boston Opera House","city":"Boston","location":[-71.06237,42.353999]},{"name":"CAESAR'S","city":"Boston","location":[-71.062021,42.352571]},{"name":"Cafe De Lulu","city":"Boston","location":[-71.060969,42.351661]},{"name":"Cheeseboy \"Grilled Cheese To Go\"","city":"Boston","location":[-71.055038,42.352031]},{"name":"Chopped & Topped 3rd Fl.","city":"Boston","location":[-71.063586,42.349591]},{"name":"Coffee Corner","city":"BOSTON","location":[-71.0587,42.3594]},{"name":"Corporate Chefs @ Soups On","city":"Boston","location":[-71.06272,42.35072]},{"name":"Cosi South Station","city":"Boston","location":[-71.055038,42.352031]},{"name":"D'ANGELO'S","city":"Boston","location":[-71.0587,42.3594]},{"name":"DING HO FAST FOOD","city":"Boston","location":[-71.061239,42.35073]},{"name":"Double Tree Club Hotel/Starbucks","city":"Boston","location":[-71.0587,42.3594]},{"name":"Dumpling King","city":"Boston","location":[-71.061017,42.351624]},{"name":"Dunkin Donuts","city":"Boston","location":[-71.05667,42.35116]},{"name":"Dunkin Donuts","city":"Boston","location":[-71.063059,42.350078]},{"name":"DUNKIN' DONUTS/WATERMARK","city":"Boston","location":[-71.06024,42.3547]},{"name":"DUNKIN/DONUT/WATERMARK","city":"Boston","location":[-71.062379,42.352216]},{"name":"FIGARO'S BOSTON DELICATESSEN","city":"Boston","location":[-71.05826,42.35071]},{"name":"Fresh Life Cafe @ Tuft's Medical Ctr.","city":"Boston","location":[-71.063059,42.350078]},{"name":"Gourmet Eatery","city":"Boston","location":[-71.061208,42.349248]},{"name":"GREAT BARBECU INC.","city":"Boston","location":[-71.06023,42.35074]},{"name":"HARRISON CAFE","city":"Boston","location":[-71.062307,42.349154]},{"name":"HERRERA'S MEXICAN GRILL  INC.","city":"Boston","location":[-71.062458,42.355262]},{"name":"Honey Dew Donuts","city":"Boston","location":[-71.0587,42.3594]},{"name":"In Boston","city":"Boston","location":[-71.05868,42.353107]},{"name":"Kingston Station","city":"Boston","location":[-71.059213,42.353772]},{"name":"Mcdonalds","city":"Boston","location":[-71.0587,42.3594]},{"name":"McDonald's","city":"Boston","location":[-71.06269,42.351037]},{"name":"McDonald's (146 Tremont St.)","city":"Boston","location":[-71.062967,42.355186]},{"name":"Momogoose (Kiosk)","city":"Boston","location":[-71.05795,42.35192]},{"name":"New Dong Khanh Restaurant","city":"Boston","location":[-71.06158,42.35093]},{"name":"NEW HOUSE OF TOY","city":"Boston","location":[-71.059903,42.350621]},{"name":"NEW SAIGON SANDWICH INC.","city":"Boston","location":[-71.062679,42.351119]},{"name":"Pinkberry","city":"Boston","location":[-71.0587,42.3594]},{"name":"Pita Kabob","city":"Boston","location":[-71.061258,42.353254]},{"name":"PIZZERIA REGINA OF SO. STATION","city":"Boston","location":[-71.055038,42.352031]},{"name":"RAA EATERY","city":"Boston","location":[-71.057556,42.353033]},{"name":"Sal's Pizza/Bakery","city":"Boston","location":[-71.063101,42.354798]},{"name":"Sodexo Operations @ State Street","city":"BOSTON","location":[-71.0587,42.3594]},{"name":"Starbucks Coffee # 10599","city":"Boston","location":[-71.057556,42.353033]},{"name":"Starbucks Coffee Co.","city":"Boston","location":[-71.056269,42.352467]},{"name":"Subway","city":"Boston","location":[-71.062825,42.355314]},{"name":"SUISHAYA RESTAURANT","city":"Boston","location":[-71.06037,42.35121]},{"name":"SUSAN'S DELI OF COURSE","city":"BOSTON","location":[-71.0587,42.3594]},{"name":"Temple Place Cafe","city":"Boston","location":[-71.062051,42.355396]},{"name":"The Juice Bar","city":"Boston","location":[-71.060969,42.351661]},{"name":"Trattoria Andiamo","city":"Boston","location":[-71.057119,42.35107]},{"name":"Wild Cherry","city":"Boston","location":[-71.062281,42.351365]},{"name":"Wing's Kitchen","city":"Boston","location":[-71.06031,42.35052]}]}]},{"name":"02113","location":{"lat":42.3654231,"lng":-71.05497679999999},"children":[{"name":"School","size":1,"children":[]},{"name":"Company","size":0,"children":[]},{"name":"Food","size":17,"children":[{"name":"BOSTON BEANSTOCK COFFEE CO.","city":"Boston","location":[-71.055523,42.363853]},{"name":"Bread & Butter","city":"Boston","location":[-71.055959,42.362948]},{"name":"Caffe Lil Italy","city":"Boston","location":[-71.05478,42.36652]},{"name":"CHINA HOUSE","city":"Boston","location":[-71.05382,42.3642]},{"name":"Cobblestones","city":"Boston","location":[-71.055089,42.362972]},{"name":"Dip It Sweet","city":"Boston","location":[-71.057435,42.364175]},{"name":"GALLERIA UMBERTO","city":"Boston","location":[-71.05425,42.36372]},{"name":"Gelateria","city":"Boston","location":[-71.05468,42.36382]},{"name":"Gigi Gelateria","city":"Boston","location":[-71.055959,42.362948]},{"name":"MANGIA MANGIA","city":"Boston","location":[-71.057242,42.365007]},{"name":"MIKE'S PASTRY INC.","city":"Boston","location":[-71.05427,42.36424]},{"name":"MY COUSIN'S PLACE","city":"Boston","location":[-71.05296,42.36602]},{"name":"Pasta & Pomodoro","city":"Boston","location":[-71.0557,42.36483]},{"name":"Paulies","city":"Boston","location":[-71.0559,42.36327]},{"name":"Pinkberry","city":"Boston","location":[-71.05441,42.36363]},{"name":"QUATTRO RISTORANTE  GRILL & PIZZERIA","city":"Boston","location":[-71.054861,42.363585]},{"name":"VOLLE NOLLE","city":"Boston","location":[-71.05348,42.36455]}]}]},{"name":"02114","location":{"lat":42.3652917,"lng":-71.0646337},"children":[{"name":"School","size":0,"children":[]},{"name":"Company","size":0,"children":[]},{"name":"Food","size":87,"children":[{"name":"Au Bon Pain","city":"Boston","location":[-71.06166,42.36384]},{"name":"Au Bon Pain (Cambridge St.)","city":"Boston","location":[-71.0587,42.3594]},{"name":"CAFE PODIMA","city":"Boston","location":[-71.064886,42.360947]},{"name":"CAUSEWAY CAFE","city":"Boston","location":[-71.05943,42.36611]},{"name":"CUPPACOFFEE","city":"Boston","location":[-71.0587,42.3594]},{"name":"Derne Street Deli","city":"Boston","location":[-71.06344,42.35953]},{"name":"Domino's Pizza","city":"Boston","location":[-71.0587,42.3594]},{"name":"Dunkin Donuts","city":"Boston","location":[-71.062109,42.360584]},{"name":"Dunkin' Donuts","city":"BOSTON","location":[-71.0587,42.3594]},{"name":"Dunkin Donuts (Canal St.)","city":"Boston","location":[-71.061179,42.365016]},{"name":"Dunkin Donuts (Causeway St.)","city":"Boston","location":[-71.06294,42.36431]},{"name":"Dunkin Donuts North Station","city":"Boston","location":[-71.0587,42.3594]},{"name":"DUNKIN DONUTS/BEE FINE FOODS","city":"BOSTON","location":[-71.0587,42.3594]},{"name":"DUNKIN DONUTS/FIRST DONUTS INC","city":"BOSTON","location":[-71.0587,42.3594]},{"name":"DUNKIN DONUTS/PLAZA ENT","city":"BOSTON","location":[-71.0587,42.3594]},{"name":"Emack & Bolio","city":"Boston","location":[-71.0587,42.3594]},{"name":"Equal Exchange","city":"Boston","location":[-71.05943,42.36664]},{"name":"Finagle A Bagel","city":"Boston","location":[-71.068227,42.361357]},{"name":"FLOUR BAKERY & CAFE","city":"Roxbury","location":[-71.07488,42.338323]},{"name":"GRIDDLER'S BURGERS & DOGS","city":"Boston","location":[-71.06586,42.36096]},{"name":"HALF TIME","city":"Boston","location":[-71.061409,42.365054]},{"name":"Isabelle's Curly Cakes","city":"Boston","location":[-71.07045,42.35843]},{"name":"J P Licks @ Charles Street","city":"Boston","location":[-71.071,42.35998]},{"name":"Landmark Pizza @ North Station","city":"Boston","location":[-71.062947,42.368114]},{"name":"Mass General Hospital/Blossom Cafe","city":"Boston","location":[-71.0587,42.3594]},{"name":"Mass General Hospital/Coffee Central","city":"Boston","location":[-71.0587,42.3594]},{"name":"Massachusetts Eye & Ear Infirmary (Cart)","city":"Boston","location":[-71.070319,42.362781]},{"name":"McDonald's","city":"BOSTON","location":[-71.0587,42.3594]},{"name":"METRO SUBWAY INC.","city":"Boston","location":[-71.06196,42.36471]},{"name":"Mulligans","city":"Boston","location":[-71.059631,42.364307]},{"name":"Nino's Pizza","city":"Boston","location":[-71.07042,42.35838]},{"name":"PAPA'S ROAST BEEF AND PIZZA","city":"Boston","location":[-71.06294,42.36431]},{"name":"Qdoba Mexican Grill #2592","city":"Boston","location":[-71.06185,42.36486]},{"name":"STARBUCKS COFFEE # 864","city":"Boston","location":[-71.07056,42.35889]},{"name":"STARBUCKS COFFEE CO.","city":"Boston","location":[-71.066481,42.360985]},{"name":"Subway (138 Cambridge St.)","city":"Boston","location":[-71.063928,42.361003]},{"name":"T D Garden Campione Pizza 406","city":"Boston","location":[-71.0587,42.3594]},{"name":"T D Garden Campione Pizza 415","city":"Boston","location":[-71.0587,42.3594]},{"name":"T D Garden Campione Pizza 727","city":"Boston","location":[-71.0587,42.3594]},{"name":"T D Garden Campione Pizza 731","city":"Boston","location":[-71.0587,42.3594]},{"name":"T D Garden Carvery 456","city":"Boston","location":[-71.0587,42.3594]},{"name":"T D Garden Chicken and Brew 405","city":"Boston","location":[-71.0587,42.3594]},{"name":"T D Garden Chicken and Brew 413","city":"Boston","location":[-71.0587,42.3594]},{"name":"T D Garden Chipper(Boston Pops 205)","city":"Boston","location":[-71.0587,42.3594]},{"name":"T D Garden Frank House 301","city":"Boston","location":[-71.0587,42.3594]},{"name":"T D Garden Frank House 403","city":"Boston","location":[-71.0587,42.3594]},{"name":"T D Garden Frank House 409","city":"Boston","location":[-71.0587,42.3594]},{"name":"T D Garden Frank House 411","city":"Boston","location":[-71.0587,42.3594]},{"name":"T D Garden Frank House 417","city":"Boston","location":[-71.0587,42.3594]},{"name":"T D Garden Frank House 518","city":"Boston","location":[-71.0587,42.3594]},{"name":"T D Garden Frank House 711","city":"Boston","location":[-71.0587,42.3594]},{"name":"T D Garden Frank House 722","city":"Boston","location":[-71.0587,42.3594]},{"name":"T D Garden Frank House 726","city":"Boston","location":[-71.0587,42.3594]},{"name":"T D Garden Frank House 728","city":"Boston","location":[-71.0587,42.3594]},{"name":"T D Garden Frank House 730","city":"Boston","location":[-71.0587,42.3594]},{"name":"T D Garden Frank House 732","city":"Boston","location":[-71.0587,42.3594]},{"name":"T D Garden Frank House 736","city":"Boston","location":[-71.0587,42.3594]},{"name":"T D Garden Frank House 737","city":"Boston","location":[-71.0587,42.3594]},{"name":"T D Garden Gelato 422","city":"Boston","location":[-71.0587,42.3594]},{"name":"T D Garden Hub Bar 201","city":"Boston","location":[-71.0587,42.3594]},{"name":"T D Garden Hungry for Hockey 777","city":"Boston","location":[-71.0587,42.3594]},{"name":"T D Garden Links Grill 407","city":"Boston","location":[-71.0587,42.3594]},{"name":"T D Garden Links Grill 416","city":"Boston","location":[-71.0587,42.3594]},{"name":"T D Garden Links Grill 521","city":"Boston","location":[-71.0587,42.3594]},{"name":"T D Garden Links Grill 724","city":"Boston","location":[-71.0587,42.3594]},{"name":"T D Garden Links Grill 729","city":"Boston","location":[-71.0587,42.3594]},{"name":"T D Garden Links Grill 734","city":"Boston","location":[-71.0587,42.3594]},{"name":"T D Garden On Tap 402","city":"Boston","location":[-71.0587,42.3594]},{"name":"T D Garden On Tap 410","city":"Boston","location":[-71.0587,42.3594]},{"name":"T D Garden Pile High 408","city":"Boston","location":[-71.0587,42.3594]},{"name":"T D Garden Pile High 725","city":"Boston","location":[-71.0587,42.3594]},{"name":"T D Garden Shots 404","city":"Boston","location":[-71.0587,42.3594]},{"name":"T D Garden Shots 412","city":"Boston","location":[-71.0587,42.3594]},{"name":"T D Garden Shots 521B #203","city":"Boston","location":[-71.0587,42.3594]},{"name":"T D Garden Shots 723","city":"Boston","location":[-71.0587,42.3594]},{"name":"T D Garden Shots 735","city":"Boston","location":[-71.0587,42.3594]},{"name":"T D Garden Sweet Spot 414","city":"Boston","location":[-71.0587,42.3594]},{"name":"T D Garden Sweet Spot 733","city":"Boston","location":[-71.0587,42.3594]},{"name":"T D Garden The Premium Market","city":"Boston","location":[-71.0587,42.3594]},{"name":"THE CAFE ON NEW CHARDON ST.","city":"Boston","location":[-71.06174,42.36211]},{"name":"The Upper Crust","city":"Boston","location":[-71.06994,42.35664]},{"name":"UPTOWN CAFE","city":"BOSTON","location":[-71.0587,42.3594]},{"name":"VANILLE-BAKERY & PASTRY","city":"Boston","location":[-71.0706,42.35788]},{"name":"Viva Burrito","city":"Boston","location":[-71.06423,42.362733]},{"name":"What's Your Beef #744","city":"Boston/West End","location":[-71.0587,42.3594]},{"name":"WHOLE FOODS MARKET(Cambridge St.)","city":"Boston","location":[-71.065981,42.362108]},{"name":"YAWKEY CENTER \"COFFEE SOUTH\"","city":"Boston","location":[-71.068988,42.362202]}]}]},{"name":"02115","location":{"lat":42.339904,"lng":-71.0898892},"children":[{"name":"School","size":3,"children":[]},{"name":"Company","size":0,"children":[]},{"name":"Food","size":116,"children":[{"name":"Au Bon Pain","city":"Boston","location":[-71.106281,42.337388]},{"name":"Au Bon Pain","city":"Boston","location":[-71.10748,42.336106]},{"name":"BANGKOK CITY RESTAURANT","city":"BOSTON","location":[-71.0587,42.3594]},{"name":"Blue Cross Blue Shield-Landmark Center","city":"Boston","location":[-71.102755,42.344534]},{"name":"BO9/CO9/Y7","city":"Boston","location":[-71.09868,42.346723]},{"name":"Boloco","city":"BOSTON","location":[-71.0587,42.3594]},{"name":"Boloco","city":"BOSTON","location":[-71.0587,42.3594]},{"name":"BOSTON MARKET","city":"BOSTON","location":[-71.0587,42.3594]},{"name":"Boston Symphony Orchestra","city":"BOSTON","location":[-71.0587,42.3594]},{"name":"Brigham & Women Hospital","city":"Boston","location":[-71.10748,42.336106]},{"name":"Brigham & Womens Coffee Cart@45 Francis","city":"Boston","location":[-71.10748,42.336106]},{"name":"BRIGHAM CIRCLE CHINESE FOOD","city":"BOSTON","location":[-71.0587,42.3594]},{"name":"BV","city":"Boston","location":[-71.09868,42.346723]},{"name":"C10/B10","city":"BOSTON","location":[-71.0587,42.3594]},{"name":"C11","city":"BOSTON","location":[-71.0587,42.3594]},{"name":"C12/B12","city":"BOSTON","location":[-71.0587,42.3594]},{"name":"C13/B13","city":"BOSTON","location":[-71.0587,42.3594]},{"name":"C15/B15","city":"BOSTON","location":[-71.0587,42.3594]},{"name":"C16/B16","city":"BOSTON","location":[-71.0587,42.3594]},{"name":"C17/B17","city":"BOSTON","location":[-71.0587,42.3594]},{"name":"Cafe 939","city":"Boston","location":[-71.08505,42.348238]},{"name":"CAPPY'S PIZZA & SUBS","city":"BOSTON","location":[-71.0587,42.3594]},{"name":"CAPPY'S SUB NO. 2","city":"BOSTON","location":[-71.0587,42.3594]},{"name":"CHICKEN LOU'S","city":"Boston","location":[-71.090258,42.33924]},{"name":"Citra A Fresh Cafe","city":"Boston","location":[-71.10217,42.33724]},{"name":"CO1/BO1/Dir","city":"Boston","location":[-71.09868,42.346723]},{"name":"CO3/BO3/YO3","city":"BOSTON","location":[-71.0587,42.3594]},{"name":"CO5/BO5/YO5","city":"BOSTON","location":[-71.0587,42.3594]},{"name":"CO6/BO6","city":"BOSTON","location":[-71.0587,42.3594]},{"name":"CO7","city":"BOSTON","location":[-71.0587,42.3594]},{"name":"Concession 1","city":"Boston","location":[-71.09868,42.346723]},{"name":"D'ANGELO SANDWICH SHOP","city":"BOSTON","location":[-71.0587,42.3594]},{"name":"DD1/B14","city":"BOSTON","location":[-71.0587,42.3594]},{"name":"DD2","city":"BOSTON","location":[-71.0587,42.3594]},{"name":"Discovery Cafe","city":"Boston","location":[-71.104249,42.33901]},{"name":"Dragon Bowl","city":"Boston","location":[-71.10695,42.33829]},{"name":"Dugout Inseat","city":"Boston","location":[-71.09868,42.346723]},{"name":"Dunkin Donuts","city":"Boston","location":[-71.087599,42.346437]},{"name":"Dunkin' Donuts","city":"BOSTON","location":[-71.0587,42.3594]},{"name":"DUNKIN DONUTS'","city":"Boston","location":[-71.086508,42.348738]},{"name":"DUNKIN DONUTS/GALLERIA","city":"Boston","location":[-71.106989,42.338284]},{"name":"El Pelon Taqueria","city":"Boston","location":[-71.09911,42.343077]},{"name":"Emack & Bolio","city":"Boston","location":[-71.0587,42.3594]},{"name":"Emack & Bolio's","city":"Boston","location":[-71.08456,42.34882]},{"name":"EMC Inseat","city":"BOSTON","location":[-71.0587,42.3594]},{"name":"Five Guys Burgers & Fries","city":"Boston","location":[-71.086429,42.342036]},{"name":"Flik International @ Merck & Co.","city":"Boston","location":[-71.103259,42.339769]},{"name":"GEB - 2","city":"BOSTON","location":[-71.0587,42.3594]},{"name":"GEC/GEB","city":"BOSTON","location":[-71.0587,42.3594]},{"name":"GM1","city":"BOSTON","location":[-71.0587,42.3594]},{"name":"Green T Coffee Shop","city":"Mission Hill","location":[-71.105724,42.333487]},{"name":"Gyro City","city":"Boston","location":[-71.09911,42.343077]},{"name":"Halal Indian Cuisine","city":"Boston","location":[-71.105038,42.333841]},{"name":"INDIA SAMRAAT","city":"BOSTON","location":[-71.0587,42.3594]},{"name":"Jamba Juice","city":"Boston","location":[-71.10402,42.34936]},{"name":"Java City @ Simmons College","city":"Boston","location":[-71.09996,42.33931]},{"name":"JORDAN'S BAR","city":"Boston","location":[-71.09868,42.346723]},{"name":"Kung Fu Tea @ Mass. Ave.","city":"Boston","location":[-71.084169,42.34261]},{"name":"KWIK-E","city":"BOSTON","location":[-71.0587,42.3594]},{"name":"L5B1","city":"BOSTON","location":[-71.0587,42.3594]},{"name":"L5B3","city":"BOSTON","location":[-71.0587,42.3594]},{"name":"L5C1","city":"BOSTON","location":[-71.0587,42.3594]},{"name":"L5C3","city":"BOSTON","location":[-71.0587,42.3594]},{"name":"LB1","city":"BOSTON","location":[-71.0587,42.3594]},{"name":"LBG","city":"BOSTON","location":[-71.0587,42.3594]},{"name":"LC1/Pizza/LB2","city":"BOSTON","location":[-71.0587,42.3594]},{"name":"LC2/LY1","city":"Boston","location":[-71.09868,42.346723]},{"name":"LC4A","city":"BOSTON","location":[-71.0587,42.3594]},{"name":"Left Field Inseat","city":"Boston","location":[-71.09868,42.346723]},{"name":"Left Field Pantry","city":"Boston","location":[-71.09868,42.346723]},{"name":"LFV","city":"Boston","location":[-71.09868,42.346723]},{"name":"Little Steve's Pizza","city":"Boston","location":[-71.088759,42.34677]},{"name":"LY4/LB4/LS4","city":"Boston","location":[-71.09868,42.346723]},{"name":"Mama's Place","city":"Mission Hill","location":[-71.10601,42.33331]},{"name":"Massachusetts Eye & Ear@ Longwood","city":"Boston","location":[-71.107495,42.333002]},{"name":"McDonald's","city":"Boston","location":[-71.106989,42.338284]},{"name":"Men Tei","city":"Boston","location":[-71.08534,42.34846]},{"name":"MOBIDICK","city":"Boston","location":[-71.08624,42.342178]},{"name":"Montecristo Mexican Grill","city":"Boston","location":[-71.10549,42.33363]},{"name":"NAN LING","city":"BOSTON","location":[-71.0587,42.3594]},{"name":"Northeastern Univ Ell Ctn","city":"BOSTON","location":[-71.0587,42.3594]},{"name":"PAV1A","city":"BOSTON","location":[-71.0587,42.3594]},{"name":"PAVB1","city":"BOSTON","location":[-71.0587,42.3594]},{"name":"PAVB3","city":"BOSTON","location":[-71.0587,42.3594]},{"name":"PAVC1","city":"BOSTON","location":[-71.0587,42.3594]},{"name":"PAVC3","city":"BOSTON","location":[-71.0587,42.3594]},{"name":"Peet's Coffee Shop","city":"Boston","location":[-71.099529,42.336736]},{"name":"Pinkberry","city":"Boston","location":[-71.08449,42.34884]},{"name":"Pizza 10","city":"BOSTON","location":[-71.0587,42.3594]},{"name":"PO6/BO7/PBD","city":"BOSTON","location":[-71.0587,42.3594]},{"name":"Qdoba Mexican Grill #2207","city":"Boston","location":[-71.090882,42.339776]},{"name":"RFV","city":"Boston","location":[-71.09868,42.346723]},{"name":"Right Field Inseat","city":"Boston","location":[-71.09868,42.346723]},{"name":"Right Field Pantry","city":"Boston","location":[-71.09868,42.346723]},{"name":"Rod Dee 2 Thai Cuisine","city":"Boston","location":[-71.099229,42.34302]},{"name":"Sepal","city":"BOSTON","location":[-71.0587,42.3594]},{"name":"Simmons College-Meyers Cafe","city":"Boston","location":[-71.0587,42.3594]},{"name":"SIMMONS COLLEGE-QUADSINE","city":"BOSTON","location":[-71.0587,42.3594]},{"name":"Smoothie King","city":"Boston","location":[-71.085334,42.348617]},{"name":"SPIKE'S JUNKYARD DOGS","city":"Boston","location":[-71.08797,42.346932]},{"name":"Starbucks","city":"BOSTON","location":[-71.0587,42.3594]},{"name":"Starbucks Coffee","city":"Boston","location":[-71.086311,42.342124]},{"name":"Starbucks Coffee # 7224","city":"BOSTON","location":[-71.0587,42.3594]},{"name":"Starbucks Coffee # 7234","city":"Boston","location":[-71.0877,42.34669]},{"name":"Starbucks Coffee # 7804","city":"BOSTON","location":[-71.0587,42.3594]},{"name":"Starbucks Coffee Co. #872","city":"Boston","location":[-71.08715,42.34811]},{"name":"Subway","city":"Boston","location":[-71.106989,42.338284]},{"name":"Subway","city":"BOSTON","location":[-71.0587,42.3594]},{"name":"Subway","city":"Boston","location":[-71.10402,42.34936]},{"name":"Subway (334 Mass. Ave.)","city":"Boston","location":[-71.084169,42.34261]},{"name":"Sweet Cupcakes  Inc.","city":"Boston","location":[-71.0587,42.3594]},{"name":"Tsushi Inc.","city":"Boston","location":[-71.106989,42.338284]},{"name":"VHP","city":"Boston","location":[-71.09868,42.346723]},{"name":"WENTWORTH BEATTY HALL","city":"BOSTON","location":[-71.0587,42.3594]},{"name":"WHOLE FOODS MARKET","city":"Boston","location":[-71.086548,42.343689]},{"name":"Y06","city":"Boston","location":[-71.09868,42.346723]}]}]},{"name":"02116","location":{"lat":42.353068,"lng":-71.0765188},"children":[{"name":"School","size":4,"children":[]},{"name":"Company","size":3,"children":[]},{"name":"Food","size":74,"children":[{"name":"A K's Take Out & Delivery@Reggie Lewis Track","city":"Boston","location":[-71.0587,42.3594]},{"name":"Appleton Bakery & Cafe","city":"Boston","location":[-71.074714,42.345259]},{"name":"Au Bon Pain","city":"Boston","location":[-71.07284,42.35161]},{"name":"Back Bay Sandwich","city":"Boston","location":[-71.07152,42.35091]},{"name":"Ben & Jerry's","city":"Boston","location":[-71.079,42.35031]},{"name":"Ben and Jerry's","city":"","location":[-71.06876,42.351454]},{"name":"BERKELEY PERK CAFE","city":"Boston","location":[-71.07061,42.34678]},{"name":"Billy's Sub Shop","city":"Boston","location":[-71.07051,42.34659]},{"name":"Boloco","city":"Boston","location":[-71.07645,42.35064]},{"name":"Boloco (247 Newbury St.)","city":"Boston","location":[-71.08272,42.34978]},{"name":"Boloco Inspired Burritos","city":"Boston","location":[-71.067108,42.352269]},{"name":"BOSTON MARRIOTT/STARBUCKS","city":"BOSTON","location":[-71.0587,42.3594]},{"name":"Burger King","city":"Boston","location":[-71.076088,42.350729]},{"name":"CAFE JAFFA","city":"BOSTON","location":[-71.0587,42.3594]},{"name":"CALIFORNIA PIZZA  KITCHEN","city":"Boston","location":[-71.066128,42.351379]},{"name":"Capital One Boylston Cafe","city":"Boston","location":[-71.081684,42.349217]},{"name":"CHARLIE'S SANDWICH SHOPPE","city":"Boston","location":[-71.077771,42.344123]},{"name":"Choice's by Au Bon Pain","city":"BOSTON","location":[-71.0587,42.3594]},{"name":"Corporate Chefs @ Plaza Cafe (Tufts)","city":"Boston","location":[-71.06497,42.34992]},{"name":"Crazy Dough's Pizza","city":"Boston","location":[-71.06874,42.351362]},{"name":"D'ANGELO'S SANDWICH SHOP","city":"Boston","location":[-71.06874,42.351362]},{"name":"Dirty Water Dough Company","city":"Boston","location":[-71.08108,42.34975]},{"name":"Dunkin Donuts","city":"Boston","location":[-71.08001,42.34965]},{"name":"Dunkin' Donuts","city":"Boston","location":[-71.07503,42.34841]},{"name":"DUNKIN DONUTS (CITY PLACE)","city":"Boston","location":[-71.06874,42.351362]},{"name":"DUNKIN DONUTS @ HAYDEN HALL","city":"BOSTON","location":[-71.0587,42.3594]},{"name":"Dunkin Donuts @ MBTA Station","city":"Boston","location":[-71.07484,42.34738]},{"name":"Dunkin' Donuts Express","city":"BOSTON","location":[-71.0587,42.3594]},{"name":"DUNKIN' DONUTS/BASKIN ROBINS","city":"Boston","location":[-71.064909,42.352225]},{"name":"Earl of Sandwich","city":"Boston","location":[-71.067431,42.351541]},{"name":"EMILIOS PIZZA & SUBS","city":"Roxbury","location":[-71.07056,42.344289]},{"name":"Equinox Cafe","city":"Boston","location":[-71.07543,42.34682]},{"name":"FINAGLE-A-BAGEL","city":"Boston","location":[-71.07558,42.35087]},{"name":"Firehouse Subs","city":"Boston","location":[-71.07581,42.35078]},{"name":"Fisher College Cafe","city":"Boston","location":[-71.07414,42.35525]},{"name":"FLAMES RESTAURANT","city":"Mission Hill","location":[-71.105491,42.333629]},{"name":"Genki Ya of Boston","city":"Boston","location":[-71.064646,42.351219]},{"name":"Guckenheimer @ Berkeley Cafe","city":"Boston","location":[-71.072919,42.35006]},{"name":"Herrera's Burritos","city":"Boston","location":[-71.06874,42.351362]},{"name":"Iron Wok (Unit F-3)","city":"Boston","location":[-71.06874,42.351362]},{"name":"Juice Boston @ MBTA","city":"Boston","location":[-71.07484,42.34738]},{"name":"L.A. Burdick Chocolate","city":"Boston","location":[-71.075653,42.351219]},{"name":"Liberty Mutual Berkeley (1st Fl.)","city":"Boston","location":[-71.0587,42.3594]},{"name":"METRO SUBWAY","city":"Boston","location":[-71.07458,42.351109]},{"name":"Metropolitan In Town Restaurant Bar","city":"Boston","location":[-71.07758,42.35112]},{"name":"Neighborhoods","city":"Boston","location":[-71.099229,42.34302]},{"name":"New York Pizza","city":"Boston","location":[-71.06456,42.35145]},{"name":"Osaka Express","city":"Boston","location":[-71.06874,42.351362]},{"name":"Pret A Manger","city":"Boston","location":[-71.07467,42.351285]},{"name":"Pret A Manger","city":"Boston","location":[-71.0831,42.34882]},{"name":"Rebecca's Cafe","city":"Boston","location":[-71.0739,42.35053]},{"name":"Rome Pizza","city":"Roxbury","location":[-71.068561,42.346778]},{"name":"Sandella's Flatbread Cafe","city":"Boston","location":[-71.06874,42.351362]},{"name":"SODEXO@EMERSON'S CAFE(1st Fl.)","city":"Boston","location":[-71.064909,42.352225]},{"name":"Sofa Cafe","city":"Boston","location":[-71.08137,42.35013]},{"name":"SOUPER SALAD","city":"Boston","location":[-71.07254,42.350717]},{"name":"Squeeze Juice Bar","city":"Boston","location":[-71.07543,42.34682]},{"name":"Starbucks Coffee # 7544","city":"Boston","location":[-71.0811,42.34938]},{"name":"Starbucks Coffee # 7564","city":"Boston","location":[-71.06439,42.35199]},{"name":"Starbucks Coffee # 7652","city":"BOSTON","location":[-71.0587,42.3594]},{"name":"Starbucks Coffee # 807","city":"Boston","location":[-71.0587,42.3594]},{"name":"Starbucks Coffee # 822","city":"BOSTON","location":[-71.0587,42.3594]},{"name":"Starbucks Coffee # 830","city":"Boston","location":[-71.073022,42.351561]},{"name":"STARBUCKS COFFEE # 870","city":"Boston","location":[-71.07887,42.35082]},{"name":"Starbucks Coffee/Transportation Bldg.","city":"Boston","location":[-71.0587,42.3594]},{"name":"THE CATERED AFFAIR @ BOS. PUBLIC LIBRARY(T.O.)","city":"Boston","location":[-71.078658,42.349231]},{"name":"Trattoria Newbury","city":"Boston","location":[-71.08312,42.3492]},{"name":"Uno Chicago Grill","city":"Boston","location":[-71.080292,42.349589]},{"name":"Viga","city":"Boston","location":[-71.074438,42.348611]},{"name":"Viga","city":"Boston","location":[-71.070578,42.349832]},{"name":"WENDY'S OLD FASHIONED HAMBURERS","city":"Boston","location":[-71.076005,42.350736]},{"name":"Westin Copley Place Ingredients","city":"Boston","location":[-71.077314,42.348545]},{"name":"WICH ! T","city":"Boston","location":[-71.0824,42.34941]},{"name":"Wired Puppy","city":"Boston","location":[-71.0826,42.34935]}]}]},{"name":"02118","location":{"lat":42.3377967,"lng":-71.0705763},"children":[{"name":"School","size":3,"children":[]},{"name":"Company","size":17,"children":[]},{"name":"Food","size":41,"children":[{"name":"ALEX PIZZA","city":"Roxbury","location":[-71.067378,42.342301]},{"name":"Andre's Cafe","city":"Roxbury","location":[-71.074298,42.335768]},{"name":"BOSTON MEDICAL CENTER KIOSK ON BRIDGE","city":"BOSTON","location":[-71.0587,42.3594]},{"name":"Cafe @Mohr & McPherson","city":"Roxbury","location":[-71.064278,42.342238]},{"name":"CAFE 1010","city":"Roxbury","location":[-71.06727,42.327867]},{"name":"Chequers Coffee Express","city":"Roxbury","location":[-71.072487,42.336202]},{"name":"Corner Cafe","city":"Roxbury","location":[-71.07995,42.3393]},{"name":"Dunkin Donuts","city":"BOSTON","location":[-71.0587,42.3594]},{"name":"Dunkin Donuts/1138 Washington St.","city":"Roxbury","location":[-71.065841,42.343695]},{"name":"DUNKIN DONUTS/SCNVANOS","city":"BOSTON","location":[-71.0587,42.3594]},{"name":"El Centro","city":"BOSTON","location":[-71.0587,42.3594]},{"name":"El Triunfo Restaurant","city":"Roxbury","location":[-71.0648,42.3435]},{"name":"Grille 705","city":"BOSTON","location":[-71.0587,42.3594]},{"name":"Hen House","city":"Roxbury","location":[-71.06764,42.32709]},{"name":"HIDDEN KITCHEN","city":"Roxbury","location":[-71.066939,42.338403]},{"name":"J.R.'S HIDEAWAY","city":"Roxbury","location":[-71.06312,42.335891]},{"name":"JAE'S CAFE & GRILL INC","city":"BOSTON","location":[-71.0587,42.3594]},{"name":"Jaho Coffee & Tea","city":"Roxbury","location":[-71.07541,42.3379]},{"name":"LAZ CAFE","city":"Roxbury","location":[-71.07645,42.33651]},{"name":"M.G.S. Cafe Inc.","city":"BOSTON","location":[-71.0587,42.3594]},{"name":"Mana Escondido Cafe","city":"South End","location":[-71.076901,42.342688]},{"name":"Mangia Neapolitan Pizzeria","city":"Roxbury","location":[-71.08078,42.3417]},{"name":"Mcdonalds","city":"BOSTON","location":[-71.0587,42.3594]},{"name":"Molina Restaurant","city":"Roxbury","location":[-71.066709,42.330416]},{"name":"NEW CHINA RESTAURANT","city":"BOSTON","location":[-71.0587,42.3594]},{"name":"NEW ENGLAND AQUARIUM-IMAX","city":"BOSTON","location":[-71.0587,42.3594]},{"name":"New York Sub Shop","city":"BOSTON","location":[-71.0587,42.3594]},{"name":"NICOLE'S PIZZA","city":"Roxbury","location":[-71.07514,42.34233]},{"name":"Pizzatalia","city":"Roxbury","location":[-71.08059,42.33536]},{"name":"Project Place Gatehouse","city":"Roxbury","location":[-71.06631,42.3438]},{"name":"Render Coffee","city":"Roxbury","location":[-71.08149,42.341146]},{"name":"Soul Fire","city":"Boston","location":[-71.105529,42.334069]},{"name":"South End Formaggio","city":"BOSTON","location":[-71.0587,42.3594]},{"name":"SOUTH END HOUSE OF PIZZA","city":"BOSTON","location":[-71.0587,42.3594]},{"name":"STARBUCKS COFFEE INC.","city":"Roxbury","location":[-71.07464,42.34261]},{"name":"Subway","city":"Roxbury","location":[-71.0742,42.33587]},{"name":"SUNRISE RESTAURANT","city":"BOSTON","location":[-71.0587,42.3594]},{"name":"The Upper Crust","city":"Roxbury","location":[-71.07662,42.34156]},{"name":"The Wholy Grain","city":"Roxbury","location":[-71.06941,42.34304]},{"name":"YAN'S CHINA STAR","city":"Roxbury","location":[-71.065308,42.344269]},{"name":"YUM MEE GARDEN","city":"Roxbury","location":[-71.07587,42.34195]}]}]},{"name":"02119","location":{"lat":42.32182359999999,"lng":-71.08840359999999},"children":[{"name":"School","size":13,"children":[]},{"name":"Company","size":357,"children":[]},{"name":"Food","size":39,"children":[{"name":"Anshur Restauruant","city":"Roxbury","location":[-71.0943,42.33041]},{"name":"Arizona B B Q","city":"Roxbury","location":[-71.08446,42.32937]},{"name":"BACKWOODS PIZZA","city":"Roxbury","location":[-71.072511,42.321739]},{"name":"Blue Hill Coffee Shop","city":"Dorchester","location":[-71.077569,42.318959]},{"name":"Blue Hill Pizza","city":"Roxbury","location":[-71.07795,42.31931]},{"name":"Chinese Noodle","city":"ROXBURY","location":[-71.0587,42.3594]},{"name":"Crown Fried Chicken and Pizza","city":"Roxbury","location":[-71.08113,42.31898]},{"name":"DAYIB CAFE","city":"Roxbury","location":[-71.083221,42.332783]},{"name":"Domino's Pizza","city":"ROXBURY","location":[-71.0587,42.3594]},{"name":"Dudley Square Grille(tm)","city":"Roxbury","location":[-71.08328,42.32881]},{"name":"Dunkin' Donuts","city":"Roxbury","location":[-71.098011,42.317029]},{"name":"Dunkin' Donuts","city":"Roxbury","location":[-71.08446,42.32937]},{"name":"DUNKIN DONUTS'","city":"ROXBURY","location":[-71.0587,42.3594]},{"name":"DUNKIN DONUTS/BASKIN ROBBINS","city":"ROXBURY","location":[-71.0587,42.3594]},{"name":"Eddy's Restaurant","city":"Roxbury","location":[-71.083344,42.330764]},{"name":"EGLESTON PIZZA","city":"Roxbury","location":[-71.09841,42.31545]},{"name":"Empanada's House","city":"Dorchester","location":[-71.089679,42.312609]},{"name":"Express Cafe  Inc.","city":"Roxbury","location":[-71.08203,42.330446]},{"name":"Flik@Suffolk Construction","city":"Roxbury","location":[-71.0701,42.32824]},{"name":"Hafun Cafe","city":"Roxbury","location":[-71.085422,42.329699]},{"name":"IDEAL SUB SHOP","city":"Roxbury","location":[-71.072418,42.322343]},{"name":"JOE'S SUBS","city":"Roxbury","location":[-71.08372,42.329035]},{"name":"KALIHARI GRILL","city":"Roxbury","location":[-71.08645,42.32318]},{"name":"LUCKY BOSTON CHINESE REST.","city":"Roxbury","location":[-71.09877,42.31506]},{"name":"Mario's Subs & Salad","city":"ROXBURY","location":[-71.0587,42.3594]},{"name":"Mcdonalds (Warren St.)","city":"roxbury","location":[-71.0587,42.3594]},{"name":"McDonald's(3060 Washington St.)","city":"Roxbury","location":[-71.09794,42.31579]},{"name":"Mr. G's","city":"Roxbury","location":[-71.08203,42.330446]},{"name":"New Market Pizza & Grill","city":"Roxbury","location":[-71.07102,42.33208]},{"name":"New York Fried Chicken","city":"BOSTON","location":[-71.0587,42.3594]},{"name":"Nos Casa Cafe","city":"Roxbury","location":[-71.073678,42.32325]},{"name":"PRIEL'S RESTAURANT PIZZA & MORE","city":"Roxbury","location":[-71.07551,42.32487]},{"name":"Red Island Restaurant","city":"ROXBURY","location":[-71.0587,42.3594]},{"name":"Royal Fried Chicken","city":"Roxbury","location":[-71.084435,42.329364]},{"name":"Stop & Shop Supermarkt Co.","city":"BOSTON","location":[-71.0587,42.3594]},{"name":"Stop & Taste","city":"Roxbury","location":[-71.079848,42.328378]},{"name":"Tom's Sandwich Shop","city":"Roxbury","location":[-71.07548,42.33377]},{"name":"UGIS SUBS","city":"Roxbury","location":[-71.08311,42.32843]},{"name":"Yummy Yummy","city":"Roxbury","location":[-71.08446,42.32937]}]}]},{"name":"02120","location":{"lat":42.33191670000001,"lng":-71.09880249999999},"children":[{"name":"School","size":3,"children":[]},{"name":"Company","size":34,"children":[]},{"name":"Food","size":16,"children":[{"name":"A K's Take Out & Delivery","city":"Mission Hill","location":[-71.096333,42.331858]},{"name":"ALI ROTI RESTAURANT","city":"Mission Hill","location":[-71.08563,42.33666]},{"name":"CHACHO'S PIZZA","city":"Mission Hill","location":[-71.099309,42.332099]},{"name":"Dunkin' Donuts","city":"Boston","location":[-71.088188,42.335545]},{"name":"Dunkin Donuts (1447 Tremont St.)","city":"Mission Hill","location":[-71.09681,42.33198]},{"name":"GOOD EAST PIZZA","city":"Mission Hill","location":[-71.084559,42.336821]},{"name":"IL MONDO","city":"Mission Hill","location":[-71.102439,42.334854]},{"name":"JP LICKS @ BRIGHAM CIRCLE","city":"Mission Hill","location":[-71.10442,42.333351]},{"name":"Lilly Gourmet Pasta Express","city":"Mission Hill","location":[-71.100023,42.332278]},{"name":"MIKES DONUTS","city":"ROXBURY","location":[-71.0587,42.3594]},{"name":"PAPA JOHNS PIZZA","city":"ROXBURY","location":[-71.0587,42.3594]},{"name":"Slade's Bar & Grill","city":"Mission Hill","location":[-71.08355,42.33728]},{"name":"Subway","city":"ROXBURY","location":[-71.0587,42.3594]},{"name":"Subway","city":"Mission Hill","location":[-71.111789,42.33193]},{"name":"TREMONT HOUSE OF PIZZA","city":"Mission Hill","location":[-71.10305,42.3334]},{"name":"Ugi's Pizza","city":"Mission Hill","location":[-71.1005,42.32657]}]}]},{"name":"02121","location":{"lat":42.3065441,"lng":-71.08246129999999},"children":[{"name":"School","size":7,"children":[]},{"name":"Company","size":5,"children":[]},{"name":"Food","size":23,"children":[{"name":"Antojitos Dominicanos Y Mas","city":"Dorchester","location":[-71.08108,42.31175]},{"name":"Blue Island","city":"Dorchester","location":[-71.081059,42.311782]},{"name":"Boston Big Easy","city":"Dorchester","location":[-71.085018,42.302878]},{"name":"Burger King","city":"Dorchester","location":[-71.0587,42.3594]},{"name":"Burrito's Pizzeria","city":"Dorchester","location":[-71.076411,42.307484]},{"name":"Down Home Delivery & Catering","city":"Dorchester","location":[-71.07332,42.29962]},{"name":"DUNKIN DONUTS BLUE HILL AVE","city":"Dorchester","location":[-71.08204,42.309398]},{"name":"El Dugout","city":"Dorchester","location":[-71.09152,42.30992]},{"name":"EMZ PIZZA AND ICE CREAM","city":"DORCHESTER","location":[-71.0587,42.3594]},{"name":"FLAMES RESTAURANT III  INC.","city":"DORCHESTER","location":[-71.0587,42.3594]},{"name":"ISLAND STYLE INC.","city":"Dorchester","location":[-71.07876,42.303349]},{"name":"LAS BRISAS DEL CARIBE","city":"DORCHESTER","location":[-71.0587,42.3594]},{"name":"New York Fried Chicken","city":"Dorchester","location":[-71.082238,42.309591]},{"name":"P S Gourmet Coffee","city":"Dorchester","location":[-71.055331,42.283805]},{"name":"Queen Bee Cafe & Grill","city":"Dorchester","location":[-71.08361,42.30835]},{"name":"Reggae On the Grill","city":"Dorchester","location":[-71.079646,42.304469]},{"name":"RINO'S PIZZA","city":"Dorchester","location":[-71.086029,42.299836]},{"name":"San Ga","city":"Dorchester","location":[-71.08108,42.31175]},{"name":"Santo Domingo  Restaurant","city":"Dorchester","location":[-71.07879,42.30341]},{"name":"STASH'S PIZZA","city":"Dorchester","location":[-71.084901,42.303207]},{"name":"SUN PIZZA","city":"Dorchester","location":[-71.08214,42.30715]},{"name":"The Rotisserie","city":"Dorchester","location":[-71.083018,42.309756]},{"name":"VAUGHN'S FISH N CHIPS","city":"Dorchester","location":[-71.078779,42.303295]}]}]},{"name":"02122","location":{"lat":42.29671460000001,"lng":-71.0527482},"children":[{"name":"School","size":5,"children":[]},{"name":"Company","size":1,"children":[]},{"name":"Food","size":29,"children":[{"name":"BA LE FIELDS CORNER","city":"DORCHESTER","location":[-71.0587,42.3594]},{"name":"BLASI'S CAFE","city":"Dorchester","location":[-71.05536,42.28373]},{"name":"BOSTON MARKET","city":"Dorchester","location":[-71.044879,42.290076]},{"name":"China Pagoda Restaurant","city":"Dorchester","location":[-71.06139,42.2954]},{"name":"CHUNG WAH","city":"Dorchester","location":[-71.06819,42.30509]},{"name":"D'ANGELOS SANDWICH SHOP","city":"DORCHESTER","location":[-71.0587,42.3594]},{"name":"Domino's Pizza (Adams Street)","city":"Dorchester","location":[-71.060226,42.301927]},{"name":"Dunkin Donuts","city":"Dorchester","location":[-71.060388,42.296914]},{"name":"Dunkin Donuts","city":"DORCHESTER","location":[-71.0587,42.3594]},{"name":"DUNKIN DONUTS/GALLIVAN","city":"DORCHESTER","location":[-71.0587,42.3594]},{"name":"GIDDY UP GRILL","city":"BOSTON","location":[-71.0587,42.3594]},{"name":"GREENHILLS BAKERY","city":"Dorchester","location":[-71.05557,42.28327]},{"name":"HI-FI PIZZA","city":"Dorchester","location":[-71.060249,42.299301]},{"name":"MAGIC WOK RESTAURANT","city":"DORCHESTER","location":[-71.0587,42.3594]},{"name":"MCDONALD'S REST","city":"Dorchester","location":[-71.06296,42.29878]},{"name":"Minina's Cafe","city":"Dorchester","location":[-71.06637,42.30059]},{"name":"My Sisters Crawfish","city":"Dorchester","location":[-71.058007,42.299956]},{"name":"Mythos Pizza","city":"Dorchester","location":[-71.06811,42.30517]},{"name":"Nevilles Bakery & Restaurant","city":"Dorchester","location":[-71.066929,42.300918]},{"name":"PAPA GINO'S","city":"Dorchester","location":[-71.045761,42.284619]},{"name":"PAPA RINO'S PIZZA","city":"Dorchester","location":[-71.067739,42.30136]},{"name":"Pizza 24","city":"Dorchester","location":[-71.058029,42.299073]},{"name":"RIDDICK'S HOUSE OF PIZZA","city":"Dorchester","location":[-71.04386,42.28651]},{"name":"Saigon Seafood Restaurant","city":"Dorchester","location":[-71.0587,42.3594]},{"name":"Stop & Shop/Dunkin Donuts","city":"DORCHESTER","location":[-71.0587,42.3594]},{"name":"Subway","city":"Dorchester","location":[-71.060479,42.297107]},{"name":"THE BOSTON ICE CREAM FACTORY","city":"Dorchester","location":[-71.048338,42.294809]},{"name":"VINA ROAST","city":"Dorchester","location":[-71.059048,42.306157]},{"name":"Yuen Barbeque Restaurant","city":"DORCHESTER","location":[-71.0587,42.3594]}]}]},{"name":"02124","location":{"lat":42.2826027,"lng":-71.067605},"children":[{"name":"School","size":11,"children":[]},{"name":"Company","size":1,"children":[]},{"name":"Food","size":43,"children":[{"name":"AUNTIE VIE'S BAKERY & CAFE","city":"Dorchester","location":[-71.07168,42.29469]},{"name":"Beach House Cafe","city":"Dorchester","location":[-71.05596,42.28323]},{"name":"BON APPETIT RESTAURANT","city":"Dorchester","location":[-71.09125,42.285777]},{"name":"Canton House Restaurant","city":"DORCHESTER","location":[-71.0587,42.3594]},{"name":"Caribe Restaurant","city":"Dorchester","location":[-71.071965,42.292205]},{"name":"CHARLIE'S HOUSE OF PIZZA","city":"DORCHESTER","location":[-71.0587,42.3594]},{"name":"China Sky Restaurant","city":"Dorchester","location":[-71.055609,42.283093]},{"name":"China Station Restaurant","city":"Dorchester","location":[-71.07162,42.29298]},{"name":"Crown Fried Chicken","city":"Dorchester","location":[-71.08925,42.29004]},{"name":"D'BENNY'S SUBS","city":"DORCHESTER","location":[-71.0587,42.3594]},{"name":"DIMITRIOS HOUSE OF PIZZA","city":"Dorchester","location":[-71.062881,42.290228]},{"name":"Dunkin Donuts","city":"DORCHESTER","location":[-71.0587,42.3594]},{"name":"Dunkin' Donuts","city":"Dorchester","location":[-71.067789,42.272382]},{"name":"DUNKIN DONUTS (CARNEY)","city":"DORCHESTER","location":[-71.0587,42.3594]},{"name":"Dunkin Donuts @ Stop & Shop","city":"DORCHESTER","location":[-71.0587,42.3594]},{"name":"Dunkin Donuts(Seton Bldg.)","city":"Dorchester Center","location":[-71.0587,42.3594]},{"name":"Five Star Pizza & Grill","city":"Dorchester","location":[-71.050828,42.283597]},{"name":"FLAT BLACK COFFEE CO. LTD.","city":"Dorchester","location":[-71.068339,42.272412]},{"name":"Flat Black Coffee Company","city":"Dorchester","location":[-71.0587,42.3594]},{"name":"Friturilandia & Grill","city":"Dorchester","location":[-71.08805,42.291968]},{"name":"Handy & Person Catering","city":"Dorchester","location":[-71.055886,42.283394]},{"name":"JOHNNY'S PIZZA & SUBS","city":"Dorchester","location":[-71.064638,42.285213]},{"name":"Kapow","city":"Dorchester","location":[-71.067948,42.273398]},{"name":"Kentucky Fried Chicken","city":"Dorchester","location":[-71.072339,42.295093]},{"name":"LALA LUNCHEONETTE RESTAURANT","city":"Dorchester","location":[-71.07134,42.283811]},{"name":"McDonald's","city":"Dorchester","location":[-71.07187,42.290394]},{"name":"McDonald's Restaurant","city":"DORCHESTER","location":[-71.0587,42.3594]},{"name":"Mrs. Jones","city":"Dorchester","location":[-71.06795,42.27339]},{"name":"Nadina's Pizza","city":"Dorchester","location":[-71.06479,42.29933]},{"name":"Nick's Pizza and Seafood","city":"DORCHESTER","location":[-71.0587,42.3594]},{"name":"No. 1 Chinese Restaurant","city":"Dorchester","location":[-71.08314,42.28072]},{"name":"ONLY ONE JAMAICAN RESTAURANT","city":"Dorchester","location":[-71.07862,42.287159]},{"name":"ORIENTAL HOUSE","city":"Dorchester","location":[-71.071521,42.292072]},{"name":"PATS PIZZA","city":"Dorchester","location":[-71.067541,42.273506]},{"name":"Perry's Catering","city":"Dorchester","location":[-71.072138,42.294214]},{"name":"Sea Breeze Grill","city":"Dorchester","location":[-71.0587,42.3594]},{"name":"STEFANO'S PIZZA","city":"Dorchester","location":[-71.0713,42.281561]},{"name":"Subway","city":"Dorchester","location":[-71.071521,42.292072]},{"name":"SUN PIZZA.","city":"DORCHESTER","location":[-71.0587,42.3594]},{"name":"SUN-AH'S CAFE","city":"Dorchester","location":[-71.07213,42.29415]},{"name":"Taste of Eden","city":"Dorchester","location":[-71.07283,42.289223]},{"name":"WINDY CITY AT ADAMS VILLAGE","city":"Dorchester","location":[-71.055559,42.282928]},{"name":"YONG HON RESTAURANT","city":"DORCHESTER","location":[-71.0587,42.3594]}]}]},{"name":"02125","location":{"lat":42.3157363,"lng":-71.0527482},"children":[{"name":"School","size":6,"children":[]},{"name":"Company","size":0,"children":[]},{"name":"Food","size":32,"children":[{"name":"BALE RESTAURANT","city":"DORCHESTER","location":[-71.0587,42.3594]},{"name":"Boston Globe Kiosk # 2","city":"Dorchester","location":[-71.049211,42.315997]},{"name":"Burger King","city":"Dorchester","location":[-71.057693,42.309531]},{"name":"CANTON HOUSE","city":"Dorchester","location":[-71.065919,42.315595]},{"name":"Cape Verdeon Food  Terra Terra","city":"Dorchester","location":[-71.06502,42.31288]},{"name":"Casa Real Mexican Food","city":"DORCHESTER","location":[-71.0587,42.3594]},{"name":"Charlies Pizza and Kitchen","city":"Dorchester","location":[-71.056494,42.319061]},{"name":"Delicias Del Caribe","city":"Dorchester","location":[-71.060322,42.314644]},{"name":"Dunkin' Donuts","city":"Dorchester","location":[-71.058031,42.308431]},{"name":"Dunkin' Donuts","city":"Dorchester","location":[-71.06091,42.32087]},{"name":"Dunkin' Donuts","city":"Dorchester","location":[-71.05698,42.32179]},{"name":"Great Wok","city":"Dorchester","location":[-71.06171,42.32103]},{"name":"Kam Man Food South Bay","city":"Dorchester","location":[-71.063122,42.324296]},{"name":"Kentucky Fried Chicken","city":"Dorchester","location":[-71.061799,42.31997]},{"name":"LUCKY CAFE","city":"DORCHESTER","location":[-71.0587,42.3594]},{"name":"Mi Casa Tu Casa Restaurant","city":"Dorchester","location":[-71.058789,42.308104]},{"name":"Navarrete Restaurant","city":"DORCHESTER","location":[-71.0587,42.3594]},{"name":"NEW GARDEN RESTAURANT","city":"DORCHESTER","location":[-71.0587,42.3594]},{"name":"NEW YORK FRIED CHICKEN & PIZZA","city":"Dorchester","location":[-71.06626,42.315432]},{"name":"Nhu Lan Fast Food","city":"Dorchester","location":[-71.058069,42.311394]},{"name":"ON THE DOT CAFE","city":"DORCHESTER","location":[-71.0587,42.3594]},{"name":"PAPA JOHNS PIZZA","city":"DORCHESTER","location":[-71.0587,42.3594]},{"name":"Savin Scoops","city":"Dorchester","location":[-71.053998,42.311608]},{"name":"SODEXO @ UMASS JAZZMAN","city":"DORCHESTER","location":[-71.0587,42.3594]},{"name":"SODEXO UMASS-ATRIUM","city":"Dorchester","location":[-71.038947,42.313144]},{"name":"Sovereign Bank Coffee Bar","city":"Dorchester","location":[-71.04927,42.31943]},{"name":"SUGAR BOWL","city":"Dorchester","location":[-71.05696,42.321461]},{"name":"Sun Rise Restaurant Inc.","city":"DORCHESTER","location":[-71.0587,42.3594]},{"name":"The Avenue Grille","city":"Dorchester","location":[-71.05653,42.321424]},{"name":"Uno Chicago Grill","city":"BOSTON","location":[-71.0587,42.3594]},{"name":"UPHAMS HOUSE OF PIZZA","city":"DORCHESTER","location":[-71.0587,42.3594]},{"name":"VENICE PIZZA","city":"DORCHESTER","location":[-71.0587,42.3594]}]}]},{"name":"02126","location":{"lat":42.2771417,"lng":-71.0913748},"children":[{"name":"School","size":6,"children":[]},{"name":"Company","size":255,"children":[]},{"name":"Food","size":25,"children":[{"name":"ALLIS ROTI + MEAT MARKET","city":"Mattapan","location":[-71.09129,42.28377]},{"name":"Blue House of Coffee","city":"Mattapan","location":[-71.09398,42.27076]},{"name":"Burger King","city":"MATTAPAN","location":[-71.0587,42.3594]},{"name":"CHINA SEA RESTAURANT","city":"MATTAPAN","location":[-71.0587,42.3594]},{"name":"CHINATOWN EXPRESS INC.","city":"Mattapan","location":[-71.073999,42.271418]},{"name":"Domino's Pizza (Dufficy Ent.)","city":"Mattapan","location":[-71.093257,42.267624]},{"name":"Dunkin Donuts (895 Morton St.)","city":"Mattapan","location":[-71.084139,42.28044]},{"name":"Fan Fan Bakery","city":"Mattapan","location":[-71.089588,42.283304]},{"name":"FLAMES RESTAURANT","city":"Mattapan","location":[-71.09331,42.28521]},{"name":"Las Vegas Express Restaurant","city":"Mattapan","location":[-71.093209,42.269621]},{"name":"Magee's Fish House","city":"MATTAPAN","location":[-71.0587,42.3594]},{"name":"Mattapan House of Pizza","city":"Mattapan","location":[-71.094131,42.268453]},{"name":"McDonald's Restaurant","city":"Mattapan","location":[-71.093351,42.268881]},{"name":"NEW YORK FRIED CHICKEN","city":"Mattapan","location":[-71.091958,42.283694]},{"name":"P & R ICE CREAM","city":"MATTAPAN","location":[-71.0587,42.3594]},{"name":"Pit Stop Barbecue","city":"Mattapan","location":[-71.0587,42.3594]},{"name":"Regal","city":"Dorchester","location":[-71.092088,42.284737]},{"name":"Restauranchito","city":"BOSTON","location":[-71.0587,42.3594]},{"name":"RIVER STREET GRILL","city":"Mattapan","location":[-71.07364,42.27157]},{"name":"SIMCO'S RESTAURANT","city":"Mattapan","location":[-71.09389,42.272368]},{"name":"SPUKIES PIZZA RESTAURANT","city":"Mattapan","location":[-71.068856,42.272239]},{"name":"TA BO RESTAURANT","city":"MATTAPAN","location":[-71.0587,42.3594]},{"name":"TATO'S PIZZERIA & SUB SHOP","city":"Mattapan","location":[-71.091398,42.283445]},{"name":"Top of The Hill","city":"Mattapan","location":[-71.093761,42.277526]},{"name":"Vikos Pizza & Ribs","city":"Mattapan","location":[-71.10831,42.26287]}]}]},{"name":"02127","location":{"lat":42.3364553,"lng":-71.0349193},"children":[{"name":"School","size":8,"children":[]},{"name":"Company","size":242,"children":[]},{"name":"Food","size":56,"children":[{"name":"A K's Take Out","city":"South Boston","location":[-71.049226,42.339955]},{"name":"ALFREDO'S ITALIAN KITCHEN","city":"South Boston","location":[-71.051318,42.332855]},{"name":"AL'S PIZZA AND GRILL","city":"South Boston","location":[-71.04805,42.337287]},{"name":"AMSTERDAM CAFE","city":"South Boston","location":[-71.04559,42.335274]},{"name":"ANDREW SQUARE HOUSE OF PIZZA","city":"South Boston","location":[-71.05655,42.33003]},{"name":"Au Bon Pain Outdoor Cafe","city":"South Boston","location":[-71.049245,42.355105]},{"name":"BAILEY'S COFFEE SHOP","city":"SOUTH BOSTON","location":[-71.0587,42.3594]},{"name":"Burger King","city":"South Boston","location":[-71.050958,42.339219]},{"name":"CAFE ARPEGGIO","city":"South Boston","location":[-71.04816,42.33737]},{"name":"Cafe Mamtaz","city":"SOUTH BOSTON","location":[-71.0587,42.3594]},{"name":"Cirque Du Soleil - Spectrum Catering","city":"South Boston/","location":[-71.0587,42.3594]},{"name":"COFFEE SHOP","city":"South Boston","location":[-71.036129,42.339353]},{"name":"D'ANGELO'S","city":"SOUTH BOSTON","location":[-71.0587,42.3594]},{"name":"DELI OF COURSE","city":"Boston","location":[-71.041978,42.345194]},{"name":"Designer Cafe'(Au Bon Pain)","city":"BOSTON","location":[-71.0587,42.3594]},{"name":"Domino's Pizza(163 Old Colony Ave.)","city":"South Boston","location":[-71.05504,42.33403]},{"name":"Doughboy Donuts & Deli","city":"South Boston","location":[-71.05676,42.34012]},{"name":"Dunkin Donuts","city":"South Boston","location":[-71.0587,42.3594]},{"name":"Dunkin Donuts","city":"South Boston","location":[-71.05739,42.32975]},{"name":"Dunkin' Donuts","city":"South Boston","location":[-71.045528,42.335603]},{"name":"Dunkin Donuts (48 W Broadway)","city":"South Boston","location":[-71.055735,42.342384]},{"name":"Dunkin Donuts at Old Colony","city":"SOUTH BOSTON","location":[-71.0587,42.3594]},{"name":"ETHEL & ANDY'S SUB SHOP","city":"South Boston","location":[-71.037339,42.338232]},{"name":"K O Catering and Pies","city":"South Boston","location":[-71.054567,42.342447]},{"name":"L STREET DINER","city":"South Boston","location":[-71.035091,42.334052]},{"name":"Land of Pizza","city":"SOUTH BOSTON","location":[-71.0587,42.3594]},{"name":"Lee Chen's","city":"South Boston","location":[-71.0587,42.3594]},{"name":"Liberty Bell","city":"SOUTH BOSTON","location":[-71.0587,42.3594]},{"name":"Mangia Neapolitan Pizza","city":"South Boston","location":[-71.05288,42.33032]},{"name":"MARCO POLO","city":"Boston","location":[-71.05007,42.35043]},{"name":"MCGOO'S","city":"SOUTH BOSTON","location":[-71.0587,42.3594]},{"name":"Mirisola's","city":"SOUTH BOSTON","location":[-71.0587,42.3594]},{"name":"NANNING WOK","city":"South Boston","location":[-71.046301,42.335689]},{"name":"NEW HO TOY","city":"SOUTH BOSTON","location":[-71.0587,42.3594]},{"name":"Nick's Pizza & Seafood","city":"South Boston","location":[-71.04626,42.335661]},{"name":"Nourish Your Soul","city":"Boston","location":[-71.05112,42.345668]},{"name":"Olympic House of Pizza","city":"South Boston","location":[-71.0587,42.3594]},{"name":"PERKIN'S SQ DELI","city":"South Boston","location":[-71.04583,42.3352]},{"name":"PIZZA PIE-ER","city":"South Boston","location":[-71.055021,42.335078]},{"name":"Pizzeria 260","city":"South Boston/","location":[-71.0587,42.3594]},{"name":"Red Line Pizza and Grill","city":"South Boston","location":[-71.056761,42.329935]},{"name":"Rondo's Sub Shop","city":"South Boston","location":[-71.054,42.34107]},{"name":"Seaside Cafe","city":"South Boston","location":[-71.015671,42.337642]},{"name":"Sebastians (Seaport Blvd.)","city":"South Boston/","location":[-71.0587,42.3594]},{"name":"SIDEWALK CAFE","city":"South Boston","location":[-71.033538,42.334979]},{"name":"SOUTH BOSTON CHINESE","city":"SOUTH BOSTON","location":[-71.0587,42.3594]},{"name":"South Ocean Chinese Restaurant","city":"South Boston","location":[-71.036369,42.335786]},{"name":"SOUTH OCEAN RESTAURANT","city":"South Boston","location":[-71.036369,42.335786]},{"name":"Starbucks Coffee Company","city":"South Boston","location":[-71.05686,42.34248]},{"name":"Subway (11 W. Broadway)","city":"South Boston","location":[-71.05686,42.34248]},{"name":"Sullivan's","city":"SOUTH BOSTON","location":[-71.0587,42.3594]},{"name":"Supreme House of Pizza","city":"South Boston","location":[-71.052909,42.32954]},{"name":"Tasty Burger.","city":"South Boston","location":[-71.035552,42.335236]},{"name":"Teriyaki House","city":"South Boston","location":[-71.056371,42.342726]},{"name":"Top Secret Sandwiches","city":"South Boston","location":[-71.0587,42.3594]},{"name":"Yo Berry","city":"South Boston","location":[-71.04646,42.33487]}]}]},{"name":"02128","location":{"lat":42.3695431,"lng":-71.0200613},"children":[{"name":"School","size":10,"children":[]},{"name":"Company","size":506,"children":[]},{"name":"Food","size":120,"children":[{"name":"Americano Espresso Bar","city":"East Boston","location":[-71.038885,42.373853]},{"name":"Angela's Cafe","city":"East Boston","location":[-71.035,42.37853]},{"name":"Asian Too Express","city":"EAST BOSTON","location":[-71.0587,42.3594]},{"name":"Au Bon Pain (Food Court U S Air)","city":"EAST BOSTON","location":[-71.0587,42.3594]},{"name":"Au Bon Pain (Space 31)","city":"EAST BOSTON","location":[-71.0587,42.3594]},{"name":"Au Bon Pain (Space 49)","city":"EAST BOSTON","location":[-71.0587,42.3594]},{"name":"Au Bon Pain (Space 58)","city":"EAST BOSTON","location":[-71.0587,42.3594]},{"name":"Au Bon Pain (US Airways)","city":"EAST BOSTON","location":[-71.0587,42.3594]},{"name":"Auntie Anne's (Trmnl B  Gate A 18)","city":"East Boston","location":[-71.0587,42.3594]},{"name":"Bohemio's Restaurant","city":"East Boston","location":[-71.038018,42.37539]},{"name":"Bonfire By Todd English","city":"EAST BOSTON","location":[-71.0587,42.3594]},{"name":"Burger King","city":"East Boston","location":[-71.042779,42.37165]},{"name":"Burger King","city":"East Boston","location":[-71.0587,42.3594]},{"name":"Burger King","city":"East Boston","location":[-71.00953,42.386166]},{"name":"Burger King # 16370","city":"East Boston/","location":[-71.0587,42.3594]},{"name":"Burrito Elito (Trmnl E)","city":"East Boston","location":[-71.0587,42.3594]},{"name":"Cactus Grill","city":"East Boston","location":[-71.03916,42.37014]},{"name":"Cafe Orient Heights","city":"East Boston","location":[-71.00687,42.38687]},{"name":"CANTON EATERY","city":"East Boston","location":[-71.0587,42.3594]},{"name":"CHINESE DRAGON","city":"East Boston","location":[-71.02807,42.379336]},{"name":"Cosi (Pier B) Air Canada","city":"EAST BOSTON","location":[-71.0587,42.3594]},{"name":"Cosi (TRMNL E Logan Airport)","city":"East Boston","location":[-71.0587,42.3594]},{"name":"Cosi American","city":"East Boston","location":[-71.0587,42.3594]},{"name":"Currito Burrito","city":"EAST BOSTON","location":[-71.0587,42.3594]},{"name":"DACOOPA SUB & PIZZA","city":"East Boston","location":[-71.02729,42.38014]},{"name":"DEM & TED INC.  PIZZA SHUTTLE","city":"East Boston","location":[-71.038929,42.375806]},{"name":"Domino's Pizza","city":"East Boston","location":[-71.00029,42.3846]},{"name":"DONNA'S RESTAURANT","city":"East Boston","location":[-71.007351,42.387008]},{"name":"Dough East Boston","city":"East Boston","location":[-71.042087,42.371665]},{"name":"Dunkin Donuts","city":"East Boston","location":[-71.029816,42.36914]},{"name":"Dunkin Donuts","city":"EAST BOSTON","location":[-71.0587,42.3594]},{"name":"Dunkin Donuts # 1 (#52)","city":"EAST BOSTON","location":[-71.0587,42.3594]},{"name":"Dunkin Donuts (T-E Post Security)","city":"East Boston","location":[-71.0587,42.3594]},{"name":"Dunkin Donuts (TRMNL-C Baggage Area)","city":"East Boston/","location":[-71.0587,42.3594]},{"name":"Dunkin Donuts Space #57","city":"EAST BOSTON","location":[-71.0587,42.3594]},{"name":"Dunkin Donuts Space #86","city":"EAST BOSTON","location":[-71.0587,42.3594]},{"name":"DUNKIN DONUTS(ARRIVAL)","city":"EAST BOSTON","location":[-71.0587,42.3594]},{"name":"DUNKIN DONUTS(DEPARTURE)","city":"EAST BOSTON","location":[-71.0587,42.3594]},{"name":"DUNKIN' DONUTS(RMG DONUTS LLC)","city":"East Boston","location":[-71.039212,42.368982]},{"name":"DUNKIN' DONUTS(RMG DONUTS LLC)","city":"East Boston","location":[-71.00835,42.38589]},{"name":"DUNKIN DONUTS(SATELLITE)","city":"EAST BOSTON","location":[-71.0587,42.3594]},{"name":"Dunkin Donuts/Airside","city":"EAST BOSTON","location":[-71.0587,42.3594]},{"name":"DUNKIN DONUTS/WALDWIN GROUP","city":"EAST BOSTON","location":[-71.0587,42.3594]},{"name":"Dunkin Donuts-Amer Airlines/Landside","city":"EAST BOSTON","location":[-71.0587,42.3594]},{"name":"DUNKIN DONUTS-U S AIR","city":"EAST BOSTON","location":[-71.0587,42.3594]},{"name":"E.B. Crown Fried Chicken & Pizza","city":"East Boston","location":[-71.03868,42.37017]},{"name":"Earl of Sandwich","city":"East Boston","location":[-71.0587,42.3594]},{"name":"East Boston Pop Warner","city":"East Boston","location":[-71.0587,42.3594]},{"name":"EL CHALAN","city":"East Boston","location":[-71.027,42.379767]},{"name":"El Rinconcito","city":"East  Boston","location":[-71.0587,42.3594]},{"name":"ELITE DONUT SHOP","city":"East Boston","location":[-71.026928,42.379626]},{"name":"Espessomente","city":"EAST BOSTON","location":[-71.0587,42.3594]},{"name":"Fox Sports Sky Box Us Air","city":"EAST BOSTON","location":[-71.0587,42.3594]},{"name":"Fresh City","city":"East Boston","location":[-71.021817,42.364539]},{"name":"Frio Rico","city":"East Boston","location":[-71.02658,42.37985]},{"name":"Fuddruckers (Space 7)","city":"EAST BOSTON","location":[-71.0587,42.3594]},{"name":"GAME-ON","city":"EAST BOSTON","location":[-71.0587,42.3594]},{"name":"Gourmet On The Fly","city":"EAST BOSTON","location":[-71.0587,42.3594]},{"name":"Great Chef","city":"East Boston","location":[-71.02791,42.379493]},{"name":"Green Express","city":"East Boston/","location":[-71.0587,42.3594]},{"name":"Harpoon Tap Room","city":"EAST BOSTON","location":[-71.0587,42.3594]},{"name":"Honey Dew Donuts","city":"East Boston","location":[-71.03982,42.369388]},{"name":"Honey Dew Donuts","city":"East Boston","location":[-71.0587,42.3594]},{"name":"HOST-JOHN ROCKETS-GATE 28","city":"East Boston/","location":[-71.0587,42.3594]},{"name":"HOST-STARBUCKS (GATE B31)","city":"EAST BOSTON","location":[-71.0587,42.3594]},{"name":"HOST-STARBUCKS-GATE C28 Trmnl C","city":"East Boston/","location":[-71.0587,42.3594]},{"name":"Host-Wolfgang Pucks-Gate 28","city":"EAST BOSTON","location":[-71.0587,42.3594]},{"name":"KELLEY'S SQ. PUB","city":"East Boston","location":[-71.035629,42.376231]},{"name":"La Abundansia","city":"East Boston","location":[-71.038772,42.371739]},{"name":"LA CHIVA RESTAURANT","city":"East Boston","location":[-71.02954,42.37825]},{"name":"La Esquinita Restaurant","city":"East Boston","location":[-71.02905,42.3657]},{"name":"LA REINA","city":"East Boston","location":[-71.0361,42.37608]},{"name":"LA SULTANA BAKERY","city":"EAST BOSTON","location":[-71.0587,42.3594]},{"name":"Latinos Restaurant","city":"East Boston","location":[-71.0364,42.37218]},{"name":"Lean & Green Gourmet","city":"EAST BOSTON","location":[-71.0587,42.3594]},{"name":"LEGAL SEA FOOD","city":"EAST BOSTON","location":[-71.0587,42.3594]},{"name":"Los Pinos Restaurante Mexican Grill","city":"BOSTON","location":[-71.0587,42.3594]},{"name":"LUCKY'S LOUNGE","city":"EAST BOSTON","location":[-71.0587,42.3594]},{"name":"Market Cafe","city":"East Boston","location":[-71.0587,42.3594]},{"name":"Mcdonalds","city":"EAST BOSTON","location":[-71.0587,42.3594]},{"name":"McDonald's","city":"East Boston","location":[-71.04028,42.37445]},{"name":"MCDONALDS RESTAURANT","city":"EAST BOSTON","location":[-71.0587,42.3594]},{"name":"Mikes Vending L L C @ Constitution Beach","city":"East Boston","location":[-71.00682,42.38588]},{"name":"Off the Boat","city":"East Boston","location":[-71.03786,42.37461]},{"name":"Panda Express Space 29A","city":"EAST BOSTON","location":[-71.0587,42.3594]},{"name":"Philips Seafood Express","city":"EAST BOSTON","location":[-71.0587,42.3594]},{"name":"Pinkberry (TRMNL C Pier B Side)","city":"East Boston/","location":[-71.0587,42.3594]},{"name":"Pollos A La Brasa Beto's","city":"East Boston","location":[-71.036459,42.375683]},{"name":"Potbelly Sandwich Shop","city":"East Boston/","location":[-71.0587,42.3594]},{"name":"PUNTO ROJO","city":"East Boston","location":[-71.0383,42.37529]},{"name":"Que  Padre","city":"East Boston","location":[-71.027994,42.379379]},{"name":"RINO'S PLACE","city":"EAST BOSTON","location":[-71.0587,42.3594]},{"name":"Rosticeria Cancun","city":"East Boston","location":[-71.038873,42.37369]},{"name":"ROYAL ROAST BEEF & SEAFOOD","city":"East Boston","location":[-71.01084,42.38557]},{"name":"RYO Asian Fusion","city":"East Boston","location":[-71.0587,42.3594]},{"name":"RYO Asian Fusion","city":"EAST BOSTON","location":[-71.0587,42.3594]},{"name":"Salamanders Coffee Place","city":"East Boston","location":[-71.037913,42.369908]},{"name":"Samuel Adams Toasts Boston(Gates B4-21)","city":"EAST BOSTON","location":[-71.0587,42.3594]},{"name":"SBARRO RESTAURANT","city":"East Boston","location":[-71.021817,42.364539]},{"name":"SBARRO RESTAURANT","city":"EAST BOSTON","location":[-71.0587,42.3594]},{"name":"SBARRO RESTAURANT (Trmnl C Food Court)","city":"East Boston/","location":[-71.0587,42.3594]},{"name":"SBARRO RESTAURANT TRMNL E","city":"EAST BOSTON","location":[-71.0587,42.3594]},{"name":"SIDE STREET CAFE","city":"East Boston","location":[-71.03879,42.37214]},{"name":"Slush King","city":"EAST BOSTON","location":[-71.0587,42.3594]},{"name":"Starbucks","city":"EAST BOSTON","location":[-71.0587,42.3594]},{"name":"Starbucks Coffee","city":"East Boston","location":[-71.012976,42.393484]},{"name":"Starbucks Coffee(E-FC)","city":"EAST BOSTON","location":[-71.0587,42.3594]},{"name":"Starbucks Coffee(GateB1-3)","city":"EAST BOSTON","location":[-71.0587,42.3594]},{"name":"Starbucks Coffee(GateB7)","city":"EAST BOSTON","location":[-71.0587,42.3594]},{"name":"Starbucks Coffee(GatesC11-21 PierB Trmnl C)","city":"East Boston/","location":[-71.0587,42.3594]},{"name":"Subway","city":"East Boston","location":[-71.038799,42.374597]},{"name":"TACO MEX","city":"East Boston","location":[-71.038659,42.369685]},{"name":"TACOMANIA RESTAURANT","city":"East Boston","location":[-71.039339,42.375917]},{"name":"Taqueria Cancun","city":"East Boston","location":[-71.040128,42.369262]},{"name":"TAQUERIA JALISCO","city":"East Boston","location":[-71.02818,42.37871]},{"name":"Taxi Pool Cafeteria","city":"East Boston","location":[-71.0587,42.3594]},{"name":"U Food Grill","city":"East Boston","location":[-71.0587,42.3594]},{"name":"U Food Grill","city":"EAST BOSTON","location":[-71.0587,42.3594]},{"name":"Villa Specialties","city":"East Boston/","location":[-71.0587,42.3594]},{"name":"Wendy's (Logan Airport T-A)","city":"East Boston","location":[-71.0587,42.3594]}]}]},{"name":"02129","location":{"lat":42.37954089999999,"lng":-71.0646337},"children":[{"name":"School","size":4,"children":[]},{"name":"Company","size":153,"children":[]},{"name":"Food","size":16,"children":[{"name":"American Bakers","city":"Charlestown","location":[-71.053919,42.37556]},{"name":"Asian House","city":"Charlestown","location":[-71.0792,42.38254]},{"name":"DOMINO'S PIZZA (277 MAIN ST. CHASN.)","city":"Charlestown","location":[-71.06668,42.37749]},{"name":"Donut-N-Donuts Inc.","city":"Charlestown","location":[-71.06708,42.377781]},{"name":"Dunkin' Donuts","city":"CHARLESTOWN","location":[-71.0587,42.3594]},{"name":"Dunkin' Donuts","city":"Charlestown","location":[-71.0792,42.38254]},{"name":"Emack & Bolio's","city":"Charlestown","location":[-71.061707,42.3712]},{"name":"JENNY'S PIZZA","city":"Charlestown","location":[-71.06301,42.38126]},{"name":"KIPO'S PIZZERIA RESTAURANT","city":"Charlestown","location":[-71.058588,42.377447]},{"name":"PAPA GINO'S","city":"Charlestown","location":[-71.0662,42.375527]},{"name":"Sorelle","city":"Charlestown","location":[-71.062369,42.373635]},{"name":"SPEEDY CHEN'S CHINESE RESTAURANT","city":"Charlestown","location":[-71.067013,42.377727]},{"name":"THE FAMILY KITCHEN","city":"CHARLESTOWN","location":[-71.0587,42.3594]},{"name":"Toni Ann's","city":"Charlestown","location":[-71.06678,42.377577]},{"name":"Vivian's Cafe","city":"Charlestown","location":[-71.060808,42.382367]},{"name":"Zume's Coffee House","city":"Charlestown","location":[-71.065421,42.37654]}]}]},{"name":"02130","location":{"lat":42.3097365,"lng":-71.1151431},"children":[{"name":"School","size":11,"children":[]},{"name":"Company","size":458,"children":[]},{"name":"Food","size":39,"children":[{"name":"7 Pond Coffee Bar","city":"Jamaica Plain","location":[-71.11427,42.3149]},{"name":"Blue Nile Restaurant","city":"Jamaica Plain","location":[-71.10956,42.32228]},{"name":"Cafe Beirut","city":"Jamaica Plain","location":[-71.1139,42.31308]},{"name":"CAPPY'S PIZZA","city":"JAMAICA PLAIN","location":[-71.0587,42.3594]},{"name":"CAPTAIN NEMO'S","city":"Jamaica Plain","location":[-71.108578,42.322472]},{"name":"D and D Restaurant","city":"Jamaica Plain","location":[-71.100215,42.314156]},{"name":"Dunkin Donuts","city":"Jamaica Plain","location":[-71.103877,42.323016]},{"name":"Dunkin' Donuts","city":"Jamaica Plain","location":[-71.1161,42.29556]},{"name":"DUNKIN DONUTS (BAY ROAD)","city":"Jamaica Plain","location":[-71.114001,42.311843]},{"name":"Dunkin Donuts(757 Centre St.)","city":"Jamaica Plain","location":[-71.11519,42.31045]},{"name":"EL EMBAJADOR RESTAURANT","city":"Jamaica Plain","location":[-71.10514,42.3091]},{"name":"Express Pizzeria","city":"Jamaica Plain","location":[-71.10539,42.30884]},{"name":"Fazenda Cafe","city":"Jamaica Plain","location":[-71.11308,42.30025]},{"name":"Fomu","city":"Jamaica Plain","location":[-71.11429,42.31435]},{"name":"FOOD WALL CHINESE","city":"Jamaica Plain","location":[-71.10956,42.32228]},{"name":"FOREST HILLS PIZZA","city":"Jamaica Plain","location":[-71.113271,42.299986]},{"name":"IDEAL CAFE 'D PIZZA","city":"Jamaica Plain","location":[-71.11206,42.31858]},{"name":"J P House of Pizza","city":"Jamaica Plain","location":[-71.11548,42.31006]},{"name":"J.P. LICKS INC.","city":"Jamaica Plain","location":[-71.114449,42.312887]},{"name":"JOSEPH'S PIZZA & SUBS","city":"Mission Hill","location":[-71.111738,42.331757]},{"name":"MIKES DONUT SHOP","city":"JAMAICA PLAIN","location":[-71.0587,42.3594]},{"name":"Monumental Cupcakes @ JP Art Market","city":"Jamaica Plain","location":[-71.11536,42.3084]},{"name":"ORIENTAL HOUSE","city":"Jamaica Plain","location":[-71.11292,42.30042]},{"name":"Pin Bochinche Restaurant","city":"Jamaica Plain","location":[-71.100251,42.313579]},{"name":"PIZZA OGGI","city":"Jamaica Plain","location":[-71.11063,42.32169]},{"name":"PURPLE CACTUS","city":"Jamaica Plain","location":[-71.11395,42.31214]},{"name":"RIZZO'S PIZZA","city":"Jamaica Plain","location":[-71.10644,42.32274]},{"name":"Robinwood Cafe & Grille","city":"Jamaica Plain","location":[-71.11327,42.31686]},{"name":"Stop & Shop Supermarket #075","city":"Jamaica Plain","location":[-71.10315,42.324073]},{"name":"Subway (315 Centre St.)","city":"Jamaica Plain","location":[-71.103877,42.323016]},{"name":"Super Fusion Express","city":"Jamaica Plain","location":[-71.115568,42.309982]},{"name":"The Atrium Cafe@Brigham & Womens Faulkner Hosp.","city":"Jamaica Plain","location":[-71.0587,42.3594]},{"name":"The Goods JP","city":"Jamaica Plain","location":[-71.10926,42.32199]},{"name":"The Real Deal","city":"Jamaica Plain","location":[-71.11438,42.310892]},{"name":"Tostado","city":"Jamaica Plain","location":[-71.103059,42.322754]},{"name":"Yanes Burrito's","city":"Jamaica Plain","location":[-71.10743,42.30628]},{"name":"Yely's Coffee Shop","city":"Jamaica Plain","location":[-71.10204,42.32277]},{"name":"YONG KONG","city":"Jamaica Plain","location":[-71.103059,42.322754]},{"name":"ZESTO'S PIZZA","city":"Jamaica Plain","location":[-71.11154,42.31935]}]}]},{"name":"02131","location":{"lat":42.2832142,"lng":-71.1270268},"children":[{"name":"School","size":7,"children":[]},{"name":"Company","size":358,"children":[]},{"name":"Food","size":28,"children":[{"name":"A & N PIZZA","city":"Roslindale","location":[-71.13674,42.29413]},{"name":"Boston House of Pizza","city":"ROSLINDALE","location":[-71.0587,42.3594]},{"name":"Burger King # 3531","city":"Roslindale","location":[-71.139161,42.275977]},{"name":"CHECKMATE CAFE","city":"ROSLINDALE","location":[-71.0587,42.3594]},{"name":"Domino's Pizza","city":"Roslindale","location":[-71.12155,42.29232]},{"name":"Domino's Pizza","city":"Roslindale","location":[-71.139042,42.275474]},{"name":"Dunkin Donuts","city":"ROSLINDALE","location":[-71.0587,42.3594]},{"name":"DUNKIN' DONUTS (LEGION DONUTS)","city":"Roslindale","location":[-71.112514,42.283596]},{"name":"DUNKIN DONUTS(STATION DONUTS)","city":"Roslindale","location":[-71.139268,42.275401]},{"name":"Frosty Freeze","city":"ROSLINDALE","location":[-71.0587,42.3594]},{"name":"Golden House (Washington St.)","city":"Roslindale","location":[-71.133554,42.281631]},{"name":"Jimmies Ice Cream Parlor","city":"BOSTON","location":[-71.0587,42.3594]},{"name":"Kentucky Fried Chicken","city":"Roslindale","location":[-71.11089,42.28559]},{"name":"La Lechonera Cafe","city":"ROSLINDALE","location":[-71.0587,42.3594]},{"name":"Little Caesars","city":"Roslindale","location":[-71.110244,42.284551]},{"name":"Mandarin House Restaurant","city":"Roslindale","location":[-71.119401,42.278822]},{"name":"McDonald's","city":"Roslindale","location":[-71.1131,42.2828]},{"name":"Nicholas Sub & Pizza Shop","city":"Roslindale","location":[-71.118658,42.280027]},{"name":"NICK'S","city":"Roslindale","location":[-71.13884,42.27626]},{"name":"Popeyes Chicken & Biscuit","city":"Roslindale","location":[-71.112034,42.283334]},{"name":"ROSLINDALE HOUSE OF PIZZA","city":"Roslindale","location":[-71.126399,42.287818]},{"name":"Rustica Pizza","city":"Roslindale","location":[-71.136731,42.286122]},{"name":"Seven Star Street Bistro","city":"Roslindale","location":[-71.136969,42.286425]},{"name":"SIMCO'S INC.","city":"Roslindale","location":[-71.11,42.28542]},{"name":"Subway","city":"Roslindale","location":[-71.128341,42.28585]},{"name":"Tostado LLC","city":"Roslindale/","location":[-71.0587,42.3594]},{"name":"Triple Eatery","city":"Roslindale","location":[-71.12559,42.2845]},{"name":"WENDY'S OLD FASHION HAMBURGER","city":"ROSLINDALE","location":[-71.0587,42.3594]}]}]},{"name":"02132","location":{"lat":42.2797554,"lng":-71.1626756},"children":[{"name":"School","size":7,"children":[]},{"name":"Company","size":196,"children":[]},{"name":"Food","size":34,"children":[{"name":"# 7 RESTAURANT","city":"West Roxbury","location":[-71.15741,42.261873]},{"name":"Banh Mi Ngon/Vietnamese Gourmet Sandwiches","city":"West Roxbury","location":[-71.15038,42.28746]},{"name":"Bruegger's","city":"West Roxbury","location":[-71.0587,42.3594]},{"name":"Burger King # 3483","city":"West Roxbury","location":[-71.167951,42.265889]},{"name":"CHRISTOS PIZZA","city":"West Roxbury","location":[-71.150689,42.28751]},{"name":"Comella's","city":"West Roxbury","location":[-71.15548,42.28567]},{"name":"Cristelle's Restaurant","city":"West Roxbury","location":[-71.1589,42.25931]},{"name":"DENO'S SUBS & PIZZA","city":"West Roxbury","location":[-71.158001,42.280288]},{"name":"Dunkin Donuts (V.F.W. Pkwy.)","city":"WEST ROXBURY","location":[-71.0587,42.3594]},{"name":"DUNKIN DONUTS (WEST ROXBURY)","city":"West Roxbury","location":[-71.16071,42.25864]},{"name":"Dunkin' Donuts(C.A. Donuts)","city":"West Roxbury","location":[-71.16677,42.27646]},{"name":"Espresso Pizza","city":"West Roxbury","location":[-71.153789,42.286998]},{"name":"Hong Kong 888 Cafe","city":"Roslindale","location":[-71.134317,42.28857]},{"name":"i Scream Works","city":"West Roxbury","location":[-71.0587,42.3594]},{"name":"Kentucky Fried Chicken","city":"West Roxbury","location":[-71.1608,42.25787]},{"name":"Los Amigos Mexican Grill","city":"West Roxbury","location":[-71.15016,42.28746]},{"name":"Los Antojitos Restaurant","city":"West Roxbury","location":[-71.15923,42.25919]},{"name":"Maryann's Breakfast & Lunch","city":"West Roxbury","location":[-71.15742,42.2619]},{"name":"McDonald's","city":"West Roxbury","location":[-71.16782,42.264402]},{"name":"PU PU PLATTER RESTAURANT","city":"West Roxbury","location":[-71.15831,42.27986]},{"name":"ROCHE BROS. SUPERMARKET","city":"West Roxbury","location":[-71.152539,42.287186]},{"name":"Rox Diner","city":"West Roxbury","location":[-71.155668,42.286043]},{"name":"SPRING ST. CAFE","city":"West Roxbury","location":[-71.17211,42.271712]},{"name":"Starbucks Coffee Co. #7808","city":"West Roxbury","location":[-71.152571,42.287192]},{"name":"Sticky Rice Cafe","city":"West Roxbury","location":[-71.155841,42.285385]},{"name":"Subway (1868 Centre St.)","city":"West Roxbury","location":[-71.15506,42.28588]},{"name":"Taco Bell # 29265","city":"West Roxbury","location":[-71.16857,42.266743]},{"name":"Target Pizza","city":"West Roxbury","location":[-71.15683,42.26113]},{"name":"Thai Spice","city":"West Roxbury","location":[-71.150249,42.287454]},{"name":"The Red-Eyed Pig","city":"West Roxbury","location":[-71.15038,42.28746]},{"name":"Tony's Place","city":"West Roxbury","location":[-71.16725,42.27601]},{"name":"VIVA MI AREPA","city":"West Roxbury","location":[-71.157279,42.261378]},{"name":"WEST GARDEN CHINESE","city":"West Roxbury","location":[-71.15573,42.28548]},{"name":"West Napoli Pizza","city":"West Roxbury","location":[-71.15676,42.28358]}]}]},{"name":"02134","location":{"lat":42.3593008,"lng":-71.1270268},"children":[{"name":"School","size":3,"children":[]},{"name":"Company","size":255,"children":[]},{"name":"Food","size":68,"children":[{"name":"A @ Time","city":"Allston","location":[-71.134062,42.355123]},{"name":"ALFREDO'S","city":"ALLSTON","location":[-71.0587,42.3594]},{"name":"Amelia's Taqueria","city":"Allston","location":[-71.133631,42.353014]},{"name":"Asia Wok","city":"Allston","location":[-71.13227,42.354462]},{"name":"Azama Grill","city":"Allston","location":[-71.13227,42.354462]},{"name":"Baco Banh Mi @Super 88 Market","city":"Allston","location":[-71.125329,42.352411]},{"name":"BAGEL RISING","city":"Allston","location":[-71.131871,42.350319]},{"name":"Bethlehem to Go","city":"Allston","location":[-71.13159,42.352101]},{"name":"BOSTON WING IT","city":"ALLSTON","location":[-71.0587,42.3594]},{"name":"Bravo Pizza","city":"BOSTON","location":[-71.0587,42.3594]},{"name":"Burger King","city":"Allston","location":[-71.134978,42.353018]},{"name":"CHANG'S HOUSE","city":"Brighton","location":[-71.143025,42.344315]},{"name":"Charlie's Pizza & Cafe","city":"Allston","location":[-71.138289,42.347732]},{"name":"CHINA MAXIM III","city":"Brighton","location":[-71.150488,42.35463]},{"name":"DIM SUM CHEF  INC.","city":"Allston","location":[-71.125329,42.352411]},{"name":"Domino's Pizza","city":"Allston","location":[-71.13572,42.353869]},{"name":"Dunkin Donuts","city":"ALLSTON","location":[-71.0587,42.3594]},{"name":"Dunkin Donuts","city":"ALLSTON","location":[-71.0587,42.3594]},{"name":"Dunkin Donuts","city":"Brighton","location":[-71.13923,42.35654]},{"name":"Dunkin Donuts (209 North Harvard St.)","city":"ALLSTON","location":[-71.0587,42.3594]},{"name":"Dunkin Donuts (219 Cambridge)","city":"Allston","location":[-71.126256,42.358225]},{"name":"DUNKIN DONUTS (ALLSTON)","city":"Allston","location":[-71.138458,42.35342]},{"name":"DUNKIN DONUTS(WOLCOTT SQ. LLC)","city":"HYDE PARK","location":[-71.0587,42.3594]},{"name":"First Bite Pizza and Grill","city":"Allston","location":[-71.12881,42.352394]},{"name":"Fomu","city":"Allston","location":[-71.13733,42.3538]},{"name":"Froyo World","city":"Allston","location":[-71.13189,42.351554]},{"name":"Garlic 'N Lemons","city":"ALLSTON","location":[-71.0587,42.3594]},{"name":"Habanero Salvadorian & Mexican Grill","city":"ALLSTON","location":[-71.0587,42.3594]},{"name":"Harvard Stadium Stand #2","city":"ALLSTON","location":[-71.0587,42.3594]},{"name":"Harvard Stadium Stand #3","city":"ALLSTON","location":[-71.0587,42.3594]},{"name":"Harvard Stadium Stand #4","city":"ALLSTON","location":[-71.0587,42.3594]},{"name":"In House Cafe","city":"Allston","location":[-71.0587,42.3594]},{"name":"J.M.P. FINE INDIAN CUISINE","city":"Allston","location":[-71.125329,42.352411]},{"name":"KANTIN","city":"Allston","location":[-71.125329,42.352411]},{"name":"KFC","city":"Allston","location":[-71.13892,42.35359]},{"name":"Kung Fu Tea","city":"Allston","location":[-71.132078,42.35225]},{"name":"La Befona Pizzeria","city":"Allston","location":[-71.13765,42.35425]},{"name":"La Mamma Pizza And More","city":"Allston","location":[-71.1339,42.35303]},{"name":"LOLLICUP TEA ZONE","city":"Allston","location":[-71.125329,42.352411]},{"name":"MAY'S CAFE","city":"Allston","location":[-71.135179,42.349451]},{"name":"MISONO GRILL","city":"Allston","location":[-71.125329,42.352411]},{"name":"MISONO WOK","city":"Allston","location":[-71.125329,42.352411]},{"name":"Mixx Frozen Yogurt","city":"Allston","location":[-71.12881,42.3524]},{"name":"Natalie's Pizza","city":"Allston","location":[-71.134024,42.348426]},{"name":"New York Fried Chicken and Pizza","city":"Brighton","location":[-71.143025,42.344315]},{"name":"O Yummy Cuisine","city":"Allston","location":[-71.133668,42.352986]},{"name":"One Of The Kind","city":"Allston","location":[-71.125329,42.352411]},{"name":"Pho Viets","city":"ALLSTON","location":[-71.0587,42.3594]},{"name":"Pikaichi","city":"Allston","location":[-71.125329,42.352411]},{"name":"Pizza Days","city":"Allston","location":[-71.130624,42.353081]},{"name":"REDNECKS ROAST BEEF/CAFE MITI","city":"Allston","location":[-71.131849,42.352761]},{"name":"Rock City Pizza","city":"Allston","location":[-71.140439,42.352294]},{"name":"Root","city":"Allston","location":[-71.137278,42.353821]},{"name":"S & I TO GO","city":"ALLSTON","location":[-71.0587,42.3594]},{"name":"Sabor do Brasil","city":"Allston","location":[-71.0587,42.3594]},{"name":"Smile Thai Noodle","city":"ALLSTON","location":[-71.0587,42.3594]},{"name":"SPIKE'S JUNKYARD DOGS","city":"Allston","location":[-71.130371,42.352564]},{"name":"Star Market #7588","city":"ALLSTON","location":[-71.0587,42.3594]},{"name":"STEVE'S KITCHEN","city":"ALLSTON","location":[-71.0587,42.3594]},{"name":"Subway","city":"Allston","location":[-71.0587,42.3594]},{"name":"Subway","city":"Allston","location":[-71.1333,42.36312]},{"name":"Super Stop & Shop","city":"Brighton","location":[-71.13923,42.35654]},{"name":"Tarboosh Pizza & Grill","city":"Allston","location":[-71.126177,42.351954]},{"name":"Thai Place Restaurant","city":"Allston","location":[-71.13372,42.352986]},{"name":"THE FIELD HOUSE","city":"Allston","location":[-71.12367,42.35459]},{"name":"TWIN DONUTS","city":"Allston","location":[-71.13797,42.35352]},{"name":"Wise Guys","city":"Allston","location":[-71.133021,42.352929]},{"name":"YOMA","city":"ALLSTON","location":[-71.0587,42.3594]}]}]},{"name":"02135","location":{"lat":42.3463503,"lng":-71.1626756},"children":[{"name":"School","size":7,"children":[]},{"name":"Company","size":334,"children":[]},{"name":"Food","size":80,"children":[{"name":"Abbott's Frozen Custard","city":"Brighton","location":[-71.153641,42.348955]},{"name":"Andalus Pizza & Cafe","city":"BRIGHTON","location":[-71.0587,42.3594]},{"name":"ASAKI","city":"Brighton","location":[-71.153159,42.349342]},{"name":"BAMBOO RESTAURANT","city":"Brighton","location":[-71.142709,42.343246]},{"name":"BANGKOK BISTRO","city":"Brighton","location":[-71.156794,42.349345]},{"name":"BIG DADDY'S PIZZA","city":"BRIGHTON","location":[-71.0587,42.3594]},{"name":"Boloco","city":"Brighton","location":[-71.149998,42.336353]},{"name":"Brick House Pizza & Grille","city":"Brighton","location":[-71.149738,42.34791]},{"name":"BRIGHTON CAFE","city":"BRIGHTON","location":[-71.0587,42.3594]},{"name":"BRIGHTON HOUSE OF PIZZA","city":"Brighton","location":[-71.14953,42.35507]},{"name":"BRUEGGER'S BAGEL BAKERY","city":"Brighton","location":[-71.137831,42.361095]},{"name":"CAFE MIRROR","city":"Brighton","location":[-71.153598,42.348959]},{"name":"CHANG'S HOUSE CHINESE REST.","city":"Brighton","location":[-71.14304,42.34429]},{"name":"Chill","city":"Brighton","location":[-71.15157,42.33691]},{"name":"China Garden","city":"Brighton","location":[-71.162949,42.3492]},{"name":"Concession Kitchen South Side","city":"Brighton","location":[-71.166434,42.336249]},{"name":"Crazy Dough's Pizza","city":"Brighton","location":[-71.166398,42.33975]},{"name":"DOLCE VITA (1696 Comm. Ave.)","city":"Brighton","location":[-71.146504,42.341247]},{"name":"Domino's Pizza","city":"Brighton","location":[-71.0587,42.3594]},{"name":"DRAGON CHEF CHINESE REST.","city":"Brighton","location":[-71.15532,42.349266]},{"name":"Dunkin Donuts","city":"Brighton","location":[-71.14991,42.33575]},{"name":"Dunkin Donuts","city":"BRIGHTON","location":[-71.0587,42.3594]},{"name":"Dunkin Donuts","city":"BRIGHTON","location":[-71.0587,42.3594]},{"name":"East Roof Production Kitchen","city":"Brighton","location":[-71.166434,42.336249]},{"name":"El Pelon","city":"Brighton","location":[-71.166405,42.340294]},{"name":"Esperia Grill & Rotisserie","city":"Brighton","location":[-71.152913,42.348845]},{"name":"FAST EDDIE'S","city":"BRIGHTON","location":[-71.0587,42.3594]},{"name":"Fins Sushi & Grill  Inc.","city":"Brighton","location":[-71.15157,42.33691]},{"name":"Fiorella's Express","city":"Brighton","location":[-71.172334,42.350616]},{"name":"Happy Garden","city":"Brighton","location":[-71.15428,42.349291]},{"name":"Hi Lab Cafe","city":"Allston","location":[-71.12407,42.36403]},{"name":"Hoshi Japanese Restaurant","city":"Brighton","location":[-71.162949,42.3492]},{"name":"IMPERIAL PIZZA","city":"Brighton","location":[-71.15219,42.34921]},{"name":"Jim's Restaurant and Deli","city":"Brighton","location":[-71.154051,42.349317]},{"name":"Little Pizza King","city":"Brighton","location":[-71.15484,42.34929]},{"name":"Mcdonalds","city":"BRIGHTON","location":[-71.0587,42.3594]},{"name":"Mcdonalds","city":"BRIGHTON","location":[-71.0587,42.3594]},{"name":"McDonald's","city":"Allston","location":[-71.13097,42.350727]},{"name":"MORGAN HALL COFFEE CART","city":"Boston","location":[-71.122227,42.365174]},{"name":"NEW HONG KONG RESTAURANT","city":"Brighton","location":[-71.16862,42.350431]},{"name":"OLIVIA'S PIZZA","city":"Brighton","location":[-71.0587,42.3594]},{"name":"Papa Gino's","city":"Brighton","location":[-71.148674,42.355805]},{"name":"PAPA JOHNS PIZZA","city":"Brighton","location":[-71.0587,42.3594]},{"name":"Pic A Pasta","city":"Brighton","location":[-71.16704,42.35036]},{"name":"Pizzanini","city":"Brighton","location":[-71.14237,42.34325]},{"name":"ROGGIE'S PIZZERIA INC.","city":"BRIGHTON","location":[-71.0587,42.3594]},{"name":"Sea To You Sushi @ Boston College","city":"BRIGHTON","location":[-71.0587,42.3594]},{"name":"Silvio O. Conte Forum Alumni 1 w/ice cream","city":"Brighton","location":[-71.166434,42.336249]},{"name":"Silvio O. Conte Forum Alumni 2 w/ice cream","city":"Brighton","location":[-71.166434,42.336249]},{"name":"Silvio O. Conte Forum Alumni 3 w/ice cream","city":"Brighton","location":[-71.166434,42.336249]},{"name":"Silvio O. Conte Forum Alumni 4 w/ice cream","city":"Brighton","location":[-71.166434,42.336249]},{"name":"Silvio O. Conte Forum Alumni 5 w/ice cream","city":"Brighton","location":[-71.166434,42.336249]},{"name":"Silvio O. Conte Forum Conte 1","city":"Brighton","location":[-71.166434,42.336249]},{"name":"Silvio O. Conte Forum Conte 2","city":"Brighton","location":[-71.166434,42.336249]},{"name":"Silvio O. Conte Forum Conte 3","city":"Brighton","location":[-71.166434,42.336249]},{"name":"Silvio O. Conte Forum Conte 4 w/ice cream","city":"Brighton","location":[-71.166434,42.336249]},{"name":"Silvio O. Conte Forum Conte 5","city":"Brighton","location":[-71.166434,42.336249]},{"name":"Silvio O. Conte Forum Conte 6","city":"Brighton","location":[-71.166434,42.336249]},{"name":"Silvio O. Conte Forum Conte 7","city":"Brighton","location":[-71.166434,42.336249]},{"name":"Silvio O. Conte Forum Conte 8 w/ice cream","city":"Brighton","location":[-71.166434,42.336249]},{"name":"Silvio O. Conte Forum East Roof 2A","city":"Brighton","location":[-71.166434,42.336249]},{"name":"Silvio O. Conte Forum East Roof 2B w/i.c.","city":"Brighton","location":[-71.166434,42.336249]},{"name":"Silvio O. Conte Forum East Roof 2C","city":"Brighton","location":[-71.166434,42.336249]},{"name":"Silvio O. Conte Forum East Roof 2D","city":"Brighton","location":[-71.166434,42.336249]},{"name":"Silvio O. Conte Forum East Roof 3A","city":"Brighton","location":[-71.166434,42.336249]},{"name":"Silvio O. Conte Forum East Roof 3B","city":"Brighton","location":[-71.166434,42.336249]},{"name":"Silvio O. Conte Forum East Roof Eagle Cart","city":"Brighton","location":[-71.166434,42.336249]},{"name":"Silvio O. Conte Forum North End Zone w/i.c.","city":"Brighton","location":[-71.166434,42.336249]},{"name":"Silvio O. Conte Forum Westside 4thFl.w/i.c.","city":"Brighton","location":[-71.166434,42.336249]},{"name":"Silvio O. Conte Forum Yawkey 4th Fl.","city":"Brighton","location":[-71.166434,42.336249]},{"name":"Starbucks Coffee","city":"Boston","location":[-71.100697,42.344895]},{"name":"Starbucks Coffee","city":"Brighton","location":[-71.15367,42.35874]},{"name":"Starbucks Coffee","city":"Brighton","location":[-71.15017,42.33631]},{"name":"STARBUCKS COFFEE # 7823","city":"Brighton","location":[-71.15954,42.3487]},{"name":"Subway","city":"Brighton","location":[-71.155309,42.349403]},{"name":"Subway (1438 Commonwealth Ave.)","city":"Brighton","location":[-71.13989,42.348186]},{"name":"Thai North Restaurant","city":"Brighton","location":[-71.168461,42.351226]},{"name":"Three Scoops","city":"Brighton","location":[-71.155079,42.349293]},{"name":"Tin Tin Buffet","city":"Brighton","location":[-71.14817,42.355693]},{"name":"Wingz Xpress","city":"Brighton","location":[-71.1643,42.34991]}]}]},{"name":"02136","location":{"lat":42.2527785,"lng":-71.1299976},"children":[{"name":"School","size":9,"children":[]},{"name":"Company","size":381,"children":[]},{"name":"Food","size":18,"children":[{"name":"20TH CENTRY BOWLING LANES","city":"Hyde Park","location":[-71.12411,42.25682]},{"name":"Bean and Cream Co.","city":"Hyde Park","location":[-71.118362,42.252129]},{"name":"Blunch","city":"BOSTON","location":[-71.0587,42.3594]},{"name":"CAPPY'S PIZZA","city":"HYDE PARK","location":[-71.0587,42.3594]},{"name":"D Coal Pot","city":"Hyde Park","location":[-71.12084,42.266054]},{"name":"D'ANGELO","city":"HYDE PARK","location":[-71.0587,42.3594]},{"name":"DESTINO'S PIZZA","city":"Hyde Park","location":[-71.12803,42.24745]},{"name":"Domino's Pizza (695 Truman Pkwy)","city":"Hyde Park","location":[-71.11896,42.25246]},{"name":"Dunkin Donuts","city":"Hyde Park","location":[-71.12321,42.257869]},{"name":"DUNKIN DONUTS/HYDE PK AVE","city":"Hyde Park","location":[-71.132132,42.237883]},{"name":"LIANE'S RESTAURANT","city":"Hyde Park","location":[-71.12493,42.25587]},{"name":"MCDONALD'S #4845","city":"HYDE PARK","location":[-71.0587,42.3594]},{"name":"Mt. Olympic Pizza","city":"Hyde Park","location":[-71.13227,42.237125]},{"name":"New York Fried Chicken (1251 River St.)","city":"Hyde Park","location":[-71.12345,42.25605]},{"name":"PAPA GINO'S","city":"Hyde Park","location":[-71.123869,42.255676]},{"name":"Pizza Hut","city":"HYDE PARK","location":[-71.0587,42.3594]},{"name":"Tommy's Pizzeria","city":"Hyde Park","location":[-71.120881,42.255748]},{"name":"Yanes Burrito's","city":"Hyde Park","location":[-71.0587,42.3594]}]}]},{"name":"02146","location":{"lat":42.703519,"lng":-73.0648853},"children":[{"name":"School","size":0,"children":[]},{"name":"Company","size":0,"children":[]},{"name":"Food","size":3,"children":[{"name":"Fruitee Yogurt","city":"Brighton","location":[-71.149001,42.336567]},{"name":"Pino's Pizza House","city":"Brighton","location":[-71.149151,42.336527]},{"name":"The Real Deal(1936 Beacon St.)","city":"Brighton","location":[-71.149931,42.336353]}]}]},{"name":"02167","location":{"lat":42.6206636,"lng":-72.7607965},"children":[{"name":"School","size":0,"children":[]},{"name":"Company","size":0,"children":[]},{"name":"Food","size":1,"children":[{"name":"J.P. LICKS AT W.R.  INC.","city":"WEST ROXBURY","location":[-71.0587,42.3594]}]}]},{"name":"02199","location":{"lat":42.3464868,"lng":-71.0832041},"children":[{"name":"School","size":0,"children":[]},{"name":"Company","size":5,"children":[]},{"name":"Food","size":18,"children":[{"name":"Ben & Jerry's","city":"Boston","location":[-71.081457,42.347296]},{"name":"Boston Chowda Co.","city":"Boston","location":[-71.081457,42.347296]},{"name":"Chacarero (800 Boylston St.)","city":"BOSTON","location":[-71.0587,42.3594]},{"name":"Cheeseboy: Grilled Cheese To Go (Kiosk)","city":"BOSTON","location":[-71.0587,42.3594]},{"name":"Cold Stone Creamery","city":"BOSTON","location":[-71.0587,42.3594]},{"name":"Crazy Dough Pizza","city":"Boston","location":[-71.081457,42.347296]},{"name":"Crumbs Bakery Shop (Kiosk)","city":"Boston","location":[-71.081457,42.347296]},{"name":"Dunkin Donuts","city":"BOSTON","location":[-71.0587,42.3594]},{"name":"DUNKIN DONUTS'","city":"Boston","location":[-71.081457,42.347296]},{"name":"FLAMERS CHARBROILED","city":"Boston","location":[-71.081457,42.347296]},{"name":"Fruitata Inc.","city":"Boston","location":[-71.081457,42.347296]},{"name":"PANDA EXPRESS #208","city":"Boston","location":[-71.081457,42.347296]},{"name":"PARADISE BAKERY & CAFE","city":"Boston","location":[-71.081457,42.347296]},{"name":"Pinkberry","city":"BOSTON","location":[-71.0587,42.3594]},{"name":"PIZZERIA REGINA @ PRUDENTIAL","city":"Boston","location":[-71.081457,42.347296]},{"name":"Qdoba Mexican Grill #2179","city":"BOSTON","location":[-71.0587,42.3594]},{"name":"Sarku Japan","city":"BOSTON","location":[-71.0587,42.3594]},{"name":"Shaw's Supermarkets #7602","city":"BOSTON","location":[-71.0587,42.3594]}]}]},{"name":"02201","location":{"lat":42.358158,"lng":-71.0585053},"children":[{"name":"School","size":0,"children":[]},{"name":"Company","size":0,"children":[]},{"name":"Food","size":1,"children":[{"name":"Dunkin Donuts-Govt. Ctr.-MBTA","city":"Boston","location":[-71.0587,42.3594]}]}]},{"name":"02210","location":{"lat":42.3517272,"lng":-71.0408624},"children":[{"name":"School","size":0,"children":[]},{"name":"Company","size":5,"children":[]},{"name":"Food","size":32,"children":[{"name":"Au Bon Pain","city":"Boston","location":[-71.0587,42.3594]},{"name":"Barrington Coffee","city":"Boston","location":[-71.048443,42.350637]},{"name":"BCG @ Bank of America Pavillion","city":"Boston","location":[-71.03656,42.348163]},{"name":"Caffe di Marina","city":"Boston","location":[-71.0587,42.3594]},{"name":"Cirque Du Soleil","city":"Boston","location":[-71.031808,42.345809]},{"name":"Concession Stand North East","city":"Boston","location":[-71.044821,42.344449]},{"name":"Concession Stand North West","city":"Boston","location":[-71.044821,42.344449]},{"name":"Concession Stand South East","city":"Boston","location":[-71.044821,42.344449]},{"name":"Concession Stand South West","city":"Boston","location":[-71.044821,42.344449]},{"name":"DUNKIN DONUT","city":"Boston","location":[-71.04926,42.35118]},{"name":"Dunkin' Donuts","city":"Boston","location":[-71.050275,42.350514]},{"name":"DUNKIN DONUTS (WTC)","city":"BOSTON","location":[-71.0587,42.3594]},{"name":"Flik International Kiosk #3@Fidelity Investments","city":"Boston","location":[-71.053852,42.351395]},{"name":"Flour Bakery & Cafe","city":"Boston","location":[-71.04881,42.35137]},{"name":"J. Pace & Son Uptown","city":"Boston","location":[-71.039263,42.348075]},{"name":"Levy Premium Food Court 1","city":"Boston","location":[-71.044821,42.344449]},{"name":"Levy Premium Food Court 2","city":"Boston","location":[-71.044821,42.344449]},{"name":"Levy Premium Food Court 3","city":"Boston","location":[-71.044821,42.344449]},{"name":"Levy Premium Food Court 4","city":"Boston","location":[-71.044821,42.344449]},{"name":"Levy Premium Food Court 5","city":"Boston","location":[-71.044821,42.344449]},{"name":"MANULIFE","city":"Boston","location":[-71.039879,42.347435]},{"name":"Pete's Dockside","city":"Boston","location":[-71.0587,42.3594]},{"name":"Renaissance Hotel (Starbucks)","city":"Boston","location":[-71.03913,42.348192]},{"name":"Sleeper St. Cafe","city":"Boston","location":[-71.04855,42.35245]},{"name":"SODEXO/JAZZMAN","city":"BOSTON","location":[-71.0587,42.3594]},{"name":"Starbucks","city":"Boston","location":[-71.039879,42.347435]},{"name":"STARBUCKS COFFEE # 7201","city":"Boston","location":[-71.0587,42.3594]},{"name":"The Westin Boston Waterfront/Starbucks","city":"Boston","location":[-71.0587,42.3594]},{"name":"Thomson Reuters (Starbucks)","city":"Boston","location":[-71.04808,42.35083]},{"name":"Trio Cafe","city":"Boston","location":[-71.046098,42.352823]},{"name":"WORLD TRADE CENTER","city":"BOSTON","location":[-71.0587,42.3594]},{"name":"YADA YADA BAKERY CAFE","city":"Boston","location":[-71.04839,42.35191]}]}]},{"name":"02215","location":{"lat":42.3476181,"lng":-71.1002881},"children":[{"name":"School","size":4,"children":[]},{"name":"Company","size":2,"children":[]},{"name":"Food","size":54,"children":[{"name":"AU BON PAIN (4TH FL)","city":"BOSTON","location":[-71.0587,42.3594]},{"name":"Au Bon Pain (Joslin Pl.)","city":"Boston","location":[-71.108501,42.3386]},{"name":"B I DEACONESS/WEST END CAFE","city":"BOSTON","location":[-71.0587,42.3594]},{"name":"B. U. Einsteins Bagels","city":"Boston","location":[-71.104278,42.350117]},{"name":"B.U. HEALTHY BLENDS","city":"BOSTON","location":[-71.0587,42.3594]},{"name":"B.U. SCHOOL OF LAW CART","city":"BOSTON","location":[-71.0587,42.3594]},{"name":"Basho Japanese Sushi@B.U.(G.S.U.)","city":"Boston","location":[-71.108963,42.350873]},{"name":"BEANTOWN BURRITO","city":"Boston","location":[-71.109399,42.340338]},{"name":"Berry Line","city":"Boston","location":[-71.0587,42.3594]},{"name":"Boloco - Berklee","city":"Boston","location":[-71.088046,42.346952]},{"name":"BOSTON UNIVERSITY ATHLETIC CTR","city":"BOSTON","location":[-71.0587,42.3594]},{"name":"Bourbon Street Cafe","city":"Boston","location":[-71.108098,42.339072]},{"name":"BREADWINNERS/STARBUCK'S","city":"BOSTON","location":[-71.0587,42.3594]},{"name":"Burger King","city":"Boston","location":[-71.09952,42.34381]},{"name":"Cafe 472","city":"Boston","location":[-71.09367,42.34855]},{"name":"Campus Trolley","city":"BOSTON","location":[-71.0587,42.3594]},{"name":"Chutney's","city":"Boston","location":[-71.108098,42.339072]},{"name":"CONF. CTR. SCHOOL OF MGMENT","city":"BOSTON","location":[-71.0587,42.3594]},{"name":"COOKIN CAFE & GRILLE","city":"BOSTON","location":[-71.0587,42.3594]},{"name":"CRISPY CREPES CAFE","city":"BOSTON","location":[-71.0587,42.3594]},{"name":"D'ANGELO/PAPA GINO'S","city":"Boston","location":[-71.101981,42.343633]},{"name":"Domino's Pizza","city":"Boston","location":[-71.095964,42.344737]},{"name":"Dunkin Donuts","city":"BOSTON","location":[-71.0587,42.3594]},{"name":"Dunkin' Donuts","city":"BOSTON","location":[-71.0587,42.3594]},{"name":"Dunkin Donuts (Kenmore Sq. Donuts)","city":"Boston","location":[-71.09629,42.348498]},{"name":"Fenway Cafe","city":"Boston","location":[-71.099081,42.347163]},{"name":"Fiouna's","city":"Boston","location":[-71.099029,42.343074]},{"name":"India Quality","city":"BOSTON","location":[-71.0587,42.3594]},{"name":"Insomnia Cookies","city":"Boston","location":[-71.1054,42.34954]},{"name":"J P Licks@Boylston St.","city":"Boston","location":[-71.08857,42.346828]},{"name":"JAZZMAN'S BY SODEXO@DANA FARBER","city":"Boston","location":[-71.0587,42.3594]},{"name":"Ki Bistro","city":"Boston","location":[-71.121837,42.352661]},{"name":"LICKS CAFE","city":"Boston","location":[-71.089011,42.346689]},{"name":"Lorettas Last Call","city":"Boston","location":[-71.094489,42.347312]},{"name":"Mixx Frozen Yogurt*","city":"Boston","location":[-71.09583,42.344764]},{"name":"NICKERSON FIELD (BU)","city":"BOSTON","location":[-71.0587,42.3594]},{"name":"Qdoba Mexican Grill","city":"Boston","location":[-71.096725,42.348492]},{"name":"Quality Mart","city":"Boston","location":[-71.089608,42.350625]},{"name":"Red Barn Coffee Roasters","city":"Boston","location":[-71.108098,42.339072]},{"name":"Regina Pizzeria at Fenway","city":"Boston","location":[-71.0587,42.3594]},{"name":"Sakura Japan","city":"Boston","location":[-71.108098,42.339072]},{"name":"SAL'S PIZZA","city":"Boston","location":[-71.10041,42.34516]},{"name":"SAL'S PIZZA","city":"Boston","location":[-71.105658,42.349573]},{"name":"Sandela's Flatbread Cafe by Sodexo","city":"Boston","location":[-71.0587,42.3594]},{"name":"SODEXO Wheelock College Longfellow Cafe 1st Fl.","city":"Boston","location":[-71.0587,42.3594]},{"name":"SOUPER SALAD","city":"Boston","location":[-71.106419,42.339039]},{"name":"Star Markets#7576/538","city":"Boston","location":[-71.100161,42.343682]},{"name":"Starbucks Store 17551","city":"Fenway","location":[-71.0587,42.3594]},{"name":"Subway","city":"Boston","location":[-71.09888,42.34459]},{"name":"The Lansdowne","city":"Boston","location":[-71.095081,42.347341]},{"name":"UNIVERSITY GRILL & PIZZA","city":"BOSTON","location":[-71.0587,42.3594]},{"name":"Uno Chicago Grill","city":"Boston","location":[-71.097471,42.34842]},{"name":"Wendy's","city":"BOSTON","location":[-71.0587,42.3594]},{"name":"Zinga","city":"Fenway","location":[-71.0587,42.3594]}]}]},{"name":"02467","location":{"lat":42.3178198,"lng":-71.1626756},"children":[{"name":"School","size":0,"children":[]},{"name":"Company","size":1,"children":[]},{"name":"Food","size":1,"children":[{"name":"MISONO RESTAURANT","city":"Boston","location":[-71.155008,42.296579]}]}]}]},{"name":"New York","location":{"lat":40.714353,"lng":-74.005973},"yearly":[{"year":"1990","patent":1084},{"year":"1991","patent":1182},{"year":"1992","patent":1073},{"year":"1993","patent":1133},{"year":"1994","patent":1193},{"year":"1995","patent":1132},{"year":"1996","patent":1270},{"year":"1997","patent":1228},{"year":"1998","patent":1749},{"year":"1999","patent":1704},{"year":"2006","creativeOccupationTotal":140737,"creativeOccupationPercentage":0.037904556},{"year":"2007","creativeOccupationTotal":145821,"creativeOccupationPercentage":0.038308098},{"year":"2008","creativeOccupationTotal":158052,"creativeOccupationPercentage":0.04025824},{"year":"2009","creativeOccupationTotal":154961,"creativeOccupationPercentage":0.040453845},{"year":"2010","creativeOccupationTotal":138828,"creativeOccupationPercentage":0.037533376},{"year":"2011","creativeOccupationTotal":151694,"creativeOccupationPercentage":0.040621999},{"year":"2012","creativeOccupationTotal":153867,"creativeOccupationPercentage":0.040110875}],"children":[{"name":"10001","location":{"lat":21.029383,"lng":105.8080132},"children":[{"name":"School","size":4,"children":[]},{"name":"Food","size":10,"children":[]}]},{"name":"10002","location":{"lat":21.029383,"lng":105.8080132},"children":[{"name":"School","size":33,"children":[]},{"name":"Food","size":12,"children":[]}]},{"name":"10003","location":{"lat":21.029383,"lng":105.8080132},"children":[{"name":"School","size":15,"children":[]},{"name":"Food","size":64,"children":[]}]},{"name":"10004","location":{"lat":21.029383,"lng":105.8080132},"children":[{"name":"School","size":5,"children":[]},{"name":"Food","size":1,"children":[]}]},{"name":"10005","location":{"lat":21.029383,"lng":105.8080132},"children":[{"name":"School","size":0,"children":[]},{"name":"Food","children":[]}]},{"name":"10006","location":{"lat":21.029383,"lng":105.8080132},"children":[{"name":"School","size":2,"children":[]},{"name":"Food","size":1,"children":[]}]},{"name":"10007","location":{"lat":21.029383,"lng":105.8080132},"children":[{"name":"School","size":3,"children":[]},{"name":"Food","size":1,"children":[]}]},{"name":"10009","location":{"lat":21.029383,"lng":105.8080132},"children":[{"name":"School","size":11,"children":[]},{"name":"Food","size":27,"children":[]}]},{"name":"10010","location":{"lat":40.8227868,"lng":111.6928704},"children":[{"name":"School","size":6,"children":[]},{"name":"Food","size":16,"children":[]}]},{"name":"10011","location":{"lat":40.83240000000001,"lng":111.72139},"children":[{"name":"School","size":15,"children":[]},{"name":"Food","size":36,"children":[]}]},{"name":"10012","location":{"lat":21.029383,"lng":105.8080132},"children":[{"name":"School","size":0,"children":[]},{"name":"Food","size":46,"children":[]}]},{"name":"10013","location":{"lat":21.029383,"lng":105.8080132},"children":[{"name":"School","size":5,"children":[]},{"name":"Food","size":54,"children":[]}]},{"name":"10014","location":{"lat":21.029383,"lng":105.8080132},"children":[{"name":"School","size":4,"children":[]},{"name":"Food","size":88,"children":[]}]},{"name":"10016","location":{"lat":21.029383,"lng":105.8080132},"children":[{"name":"School","size":5,"children":[]},{"name":"Food","size":36,"children":[]}]},{"name":"10017","location":{"lat":21.029383,"lng":105.8080132},"children":[{"name":"School","size":0,"children":[]},{"name":"Food","size":5,"children":[]}]},{"name":"10018","location":{"lat":21.029383,"lng":105.8080132},"children":[{"name":"School","size":0,"children":[]},{"name":"Food","children":[]}]},{"name":"10019","location":{"lat":21.029383,"lng":105.8080132},"children":[{"name":"School","size":12,"children":[]},{"name":"Food","size":32,"children":[]}]},{"name":"10020","location":{"lat":40.82035620000001,"lng":111.6940689},"children":[{"name":"School","size":0,"children":[]},{"name":"Food","children":[]}]},{"name":"10021","location":{"lat":21.029383,"lng":105.8080132},"children":[{"name":"School","size":2,"children":[]},{"name":"Food","size":30,"children":[]}]},{"name":"10022","location":{"lat":21.029383,"lng":105.8080132},"children":[{"name":"School","size":1,"children":[]},{"name":"Food","size":22,"children":[]}]},{"name":"10023","location":{"lat":21.029383,"lng":105.8080132},"children":[{"name":"School","size":11,"children":[]},{"name":"Food","size":37,"children":[]}]},{"name":"10024","location":{"lat":21.029383,"lng":105.8080132},"children":[{"name":"School","size":14,"children":[]},{"name":"Food","size":62,"children":[]}]},{"name":"10025","location":{"lat":21.029383,"lng":105.8080132},"children":[{"name":"School","size":14,"children":[]},{"name":"Food","size":41,"children":[]}]},{"name":"10026","location":{"lat":21.029383,"lng":105.8080132},"children":[{"name":"School","size":11,"children":[]},{"name":"Food","children":[]}]},{"name":"10027","location":{"lat":21.029383,"lng":105.8080132},"children":[{"name":"School","size":21,"children":[]},{"name":"Food","size":8,"children":[]}]},{"name":"10028","location":{"lat":21.029383,"lng":105.8080132},"children":[{"name":"School","size":2,"children":[]},{"name":"Food","size":36,"children":[]}]},{"name":"10029","location":{"lat":21.029383,"lng":105.8080132},"children":[{"name":"School","size":33,"children":[]},{"name":"Food","size":1,"children":[]}]},{"name":"10030","location":{"lat":40.8039198,"lng":111.6546141},"children":[{"name":"School","size":13,"children":[]},{"name":"Food","size":2,"children":[]}]},{"name":"10031","location":{"lat":40.7910373,"lng":111.6577349},"children":[{"name":"School","size":8,"children":[]},{"name":"Food","size":2,"children":[]}]},{"name":"10032","location":{"lat":21.029383,"lng":105.8080132},"children":[{"name":"School","size":9,"children":[]},{"name":"Food","size":5,"children":[]}]},{"name":"10033","location":{"lat":21.029383,"lng":105.8080132},"children":[{"name":"School","size":9,"children":[]},{"name":"Food","size":1,"children":[]}]},{"name":"10034","location":{"lat":21.029383,"lng":105.8080132},"children":[{"name":"School","size":9,"children":[]},{"name":"Food","size":4,"children":[]}]},{"name":"10035","location":{"lat":21.029383,"lng":105.8080132},"children":[{"name":"School","size":19,"children":[]},{"name":"Food","size":1,"children":[]}]},{"name":"10036","location":{"lat":21.029383,"lng":105.8080132},"children":[{"name":"School","size":4,"children":[]},{"name":"Food","size":26,"children":[]}]},{"name":"10037","location":{"lat":21.029383,"lng":105.8080132},"children":[{"name":"School","size":4,"children":[]},{"name":"Food","size":1,"children":[]}]},{"name":"10038","location":{"lat":21.029383,"lng":105.8080132},"children":[{"name":"School","size":3,"children":[]},{"name":"Food","size":4,"children":[]}]},{"name":"10039","location":{"lat":21.029383,"lng":105.8080132},"children":[{"name":"School","size":4,"children":[]},{"name":"Food","children":[]}]},{"name":"10040","location":{"lat":21.029383,"lng":105.8080132},"children":[{"name":"School","size":13,"children":[]},{"name":"Food","size":2,"children":[]}]},{"name":"10041","location":{"lat":21.029383,"lng":105.8080132},"children":[{"name":"School","size":0,"children":[]},{"name":"Food","children":[]}]},{"name":"10044","location":{"lat":21.029383,"lng":105.8080132},"children":[{"name":"School","size":1,"children":[]},{"name":"Food","children":[]}]},{"name":"10048","location":{"lat":21.029383,"lng":105.8080132},"children":[{"name":"School","size":0,"children":[]},{"name":"Food","children":[]}]},{"name":"10069","location":{"lat":21.029383,"lng":105.8080132},"children":[{"name":"School","size":0,"children":[]},{"name":"Food","children":[]}]},{"name":"10103","location":{"lat":21.029383,"lng":105.8080132},"children":[{"name":"School","size":0,"children":[]},{"name":"Food","children":[]}]},{"name":"10111","location":{"lat":21.029383,"lng":105.8080132},"children":[{"name":"School","size":0,"children":[]},{"name":"Food","children":[]}]},{"name":"10112","location":{"lat":21.029383,"lng":105.8080132},"children":[{"name":"School","size":0,"children":[]},{"name":"Food","children":[]}]},{"name":"10115","location":{"lat":21.029383,"lng":105.8080132},"children":[{"name":"School","size":0,"children":[]},{"name":"Food","children":[]}]},{"name":"10119","location":{"lat":21.029383,"lng":105.8080132},"children":[{"name":"School","size":0,"children":[]},{"name":"Food","children":[]}]},{"name":"10128","location":{"lat":21.029383,"lng":105.8080132},"children":[{"name":"School","size":9,"children":[]},{"name":"Food","size":28,"children":[]}]},{"name":"10152","location":{"lat":21.029383,"lng":105.8080132},"children":[{"name":"School","size":0,"children":[]},{"name":"Food","children":[]}]},{"name":"10153","location":{"lat":21.029383,"lng":105.8080132},"children":[{"name":"School","size":0,"children":[]},{"name":"Food","children":[]}]},{"name":"10154","location":{"lat":21.029383,"lng":105.8080132},"children":[{"name":"School","size":0,"children":[]},{"name":"Food","children":[]}]},{"name":"10162","location":{"lat":21.029383,"lng":105.8080132},"children":[{"name":"School","size":0,"children":[]},{"name":"Food","children":[]}]},{"name":"10165","location":{"lat":21.029383,"lng":105.8080132},"children":[{"name":"School","size":0,"children":[]},{"name":"Food","children":[]}]},{"name":"10167","location":{"lat":21.029383,"lng":105.8080132},"children":[{"name":"School","size":0,"children":[]},{"name":"Food","children":[]}]},{"name":"10169","location":{"lat":21.029383,"lng":105.8080132},"children":[{"name":"School","size":0,"children":[]},{"name":"Food","children":[]}]},{"name":"10170","location":{"lat":21.029383,"lng":105.8080132},"children":[{"name":"School","size":0,"children":[]},{"name":"Food","children":[]}]},{"name":"10171","location":{"lat":21.029383,"lng":105.8080132},"children":[{"name":"School","size":0,"children":[]},{"name":"Food","children":[]}]},{"name":"10172","location":{"lat":21.029383,"lng":105.8080132},"children":[{"name":"School","size":0,"children":[]},{"name":"Food","children":[]}]},{"name":"10173","location":{"lat":21.029383,"lng":105.8080132},"children":[{"name":"School","size":0,"children":[]},{"name":"Food","children":[]}]},{"name":"10177","location":{"lat":21.029383,"lng":105.8080132},"children":[{"name":"School","size":0,"children":[]},{"name":"Food","children":[]}]},{"name":"10271","location":{"lat":21.029383,"lng":105.8080132},"children":[{"name":"School","size":0,"children":[]},{"name":"Food","children":[]}]},{"name":"10278","location":{"lat":21.029383,"lng":105.8080132},"children":[{"name":"School","size":0,"children":[]},{"name":"Food","children":[]}]},{"name":"10279","location":{"lat":21.029383,"lng":105.8080132},"children":[{"name":"School","size":0,"children":[]},{"name":"Food","children":[]}]},{"name":"10280","location":{"lat":21.029383,"lng":105.8080132},"children":[{"name":"School","size":0,"children":[]},{"name":"Food","size":2,"children":[]}]},{"name":"10282","location":{"lat":21.029383,"lng":105.8080132},"children":[{"name":"School","size":3,"children":[]},{"name":"Food","children":[]}]},{"name":"10301","location":{"lat":21.029383,"lng":105.8080132},"children":[{"name":"School","size":10,"children":[]},{"name":"Food","children":[]}]},{"name":"10302","location":{"lat":21.029383,"lng":105.8080132},"children":[{"name":"School","size":4,"children":[]},{"name":"Food","children":[]}]},{"name":"10303","location":{"lat":21.029383,"lng":105.8080132},"children":[{"name":"School","size":3,"children":[]},{"name":"Food","children":[]}]},{"name":"10304","location":{"lat":21.029383,"lng":105.8080132},"children":[{"name":"School","size":8,"children":[]},{"name":"Food","children":[]}]},{"name":"10305","location":{"lat":21.029383,"lng":105.8080132},"children":[{"name":"School","size":4,"children":[]},{"name":"Food","size":1,"children":[]}]},{"name":"10306","location":{"lat":21.029383,"lng":105.8080132},"children":[{"name":"School","size":7,"children":[]},{"name":"Food","children":[]}]},{"name":"10307","location":{"lat":21.029383,"lng":105.8080132},"children":[{"name":"School","size":3,"children":[]},{"name":"Food","children":[]}]},{"name":"10308","location":{"lat":21.029383,"lng":105.8080132},"children":[{"name":"School","size":5,"children":[]},{"name":"Food","children":[]}]},{"name":"10309","location":{"lat":21.029383,"lng":105.8080132},"children":[{"name":"School","size":3,"children":[]},{"name":"Food","children":[]}]},{"name":"10310","location":{"lat":21.029383,"lng":105.8080132},"children":[{"name":"School","size":4,"children":[]},{"name":"Food","children":[]}]},{"name":"10312","location":{"lat":21.029383,"lng":105.8080132},"children":[{"name":"School","size":8,"children":[]},{"name":"Food","children":[]}]},{"name":"10314","location":{"lat":21.029383,"lng":105.8080132},"children":[{"name":"School","size":14,"children":[]},{"name":"Food","children":[]}]},{"name":"10451","location":{"lat":21.029383,"lng":105.8080132},"children":[{"name":"School","size":21,"children":[]},{"name":"Food","size":1,"children":[]}]},{"name":"10452","location":{"lat":21.029383,"lng":105.8080132},"children":[{"name":"School","size":10,"children":[]},{"name":"Food","children":[]}]},{"name":"10453","location":{"lat":21.029383,"lng":105.8080132},"children":[{"name":"School","size":22,"children":[]},{"name":"Food","children":[]}]},{"name":"10454","location":{"lat":21.029383,"lng":105.8080132},"children":[{"name":"School","size":19,"children":[]},{"name":"Food","children":[]}]},{"name":"10455","location":{"lat":21.029383,"lng":105.8080132},"children":[{"name":"School","size":16,"children":[]},{"name":"Food","children":[]}]},{"name":"10456","location":{"lat":21.029383,"lng":105.8080132},"children":[{"name":"School","size":47,"children":[]},{"name":"Food","children":[]}]},{"name":"10457","location":{"lat":21.029383,"lng":105.8080132},"children":[{"name":"School","size":38,"children":[]},{"name":"Food","children":[]}]},{"name":"10458","location":{"lat":21.029383,"lng":105.8080132},"children":[{"name":"School","size":21,"children":[]},{"name":"Food","size":5,"children":[]}]},{"name":"10459","location":{"lat":21.029383,"lng":105.8080132},"children":[{"name":"School","size":18,"children":[]},{"name":"Food","children":[]}]},{"name":"10460","location":{"lat":21.029383,"lng":105.8080132},"children":[{"name":"School","size":24,"children":[]},{"name":"Food","children":[]}]},{"name":"10461","location":{"lat":21.029383,"lng":105.8080132},"children":[{"name":"School","size":8,"children":[]},{"name":"Food","size":3,"children":[]}]},{"name":"10462","location":{"lat":21.029383,"lng":105.8080132},"children":[{"name":"School","size":9,"children":[]},{"name":"Food","children":[]}]},{"name":"10463","location":{"lat":21.029383,"lng":105.8080132},"children":[{"name":"School","size":22,"children":[]},{"name":"Food","size":4,"children":[]}]},{"name":"10464","location":{"lat":21.029383,"lng":105.8080132},"children":[{"name":"School","size":1,"children":[]},{"name":"Food","size":2,"children":[]}]},{"name":"10465","location":{"lat":21.029383,"lng":105.8080132},"children":[{"name":"School","size":8,"children":[]},{"name":"Food","size":2,"children":[]}]},{"name":"10466","location":{"lat":21.029383,"lng":105.8080132},"children":[{"name":"School","size":14,"children":[]},{"name":"Food","children":[]}]},{"name":"10467","location":{"lat":21.029383,"lng":105.8080132},"children":[{"name":"School","size":21,"children":[]},{"name":"Food","size":1,"children":[]}]},{"name":"10468","location":{"lat":21.029383,"lng":105.8080132},"children":[{"name":"School","size":17,"children":[]},{"name":"Food","size":1,"children":[]}]},{"name":"10469","location":{"lat":21.029383,"lng":105.8080132},"children":[{"name":"School","size":13,"children":[]},{"name":"Food","children":[]}]},{"name":"10470","location":{"lat":21.029383,"lng":105.8080132},"children":[{"name":"School","size":2,"children":[]},{"name":"Food","size":1,"children":[]}]},{"name":"10471","location":{"lat":21.029383,"lng":105.8080132},"children":[{"name":"School","size":1,"children":[]},{"name":"Food","size":1,"children":[]}]},{"name":"10472","location":{"lat":21.029383,"lng":105.8080132},"children":[{"name":"School","size":17,"children":[]},{"name":"Food","children":[]}]},{"name":"10473","location":{"lat":21.029383,"lng":105.8080132},"children":[{"name":"School","size":23,"children":[]},{"name":"Food","children":[]}]},{"name":"10474","location":{"lat":21.029383,"lng":105.8080132},"children":[{"name":"School","size":5,"children":[]},{"name":"Food","children":[]}]},{"name":"10475","location":{"lat":21.029383,"lng":105.8080132},"children":[{"name":"School","size":12,"children":[]},{"name":"Food","children":[]}]},{"name":"11004","location":{"lat":21.029383,"lng":105.8080132},"children":[{"name":"School","size":2,"children":[]},{"name":"Food","children":[]}]},{"name":"11005","location":{"lat":21.029383,"lng":105.8080132},"children":[{"name":"School","size":0,"children":[]},{"name":"Food","children":[]}]},{"name":"11101","location":{"lat":21.029383,"lng":105.8080132},"children":[{"name":"School","size":15,"children":[]},{"name":"Food","size":9,"children":[]}]},{"name":"11102","location":{"lat":21.029383,"lng":105.8080132},"children":[{"name":"School","size":5,"children":[]},{"name":"Food","size":7,"children":[]}]},{"name":"11103","location":{"lat":21.029383,"lng":105.8080132},"children":[{"name":"School","size":3,"children":[]},{"name":"Food","size":18,"children":[]}]},{"name":"11104","location":{"lat":21.029383,"lng":105.8080132},"children":[{"name":"School","size":2,"children":[]},{"name":"Food","size":4,"children":[]}]},{"name":"11105","location":{"lat":21.029383,"lng":105.8080132},"children":[{"name":"School","size":4,"children":[]},{"name":"Food","size":13,"children":[]}]},{"name":"11106","location":{"lat":21.029383,"lng":105.8080132},"children":[{"name":"School","size":10,"children":[]},{"name":"Food","size":15,"children":[]}]},{"name":"11201","location":{"lat":21.029383,"lng":105.8080132},"children":[{"name":"School","size":20,"children":[]},{"name":"Food","size":11,"children":[]}]},{"name":"11203","location":{"lat":21.029383,"lng":105.8080132},"children":[{"name":"School","size":23,"children":[]},{"name":"Food","size":1,"children":[]}]},{"name":"11204","location":{"lat":21.029383,"lng":105.8080132},"children":[{"name":"School","size":16,"children":[]},{"name":"Food","children":[]}]},{"name":"11205","location":{"lat":21.029383,"lng":105.8080132},"children":[{"name":"School","size":16,"children":[]},{"name":"Food","size":9,"children":[]}]},{"name":"11206","location":{"lat":21.029383,"lng":105.8080132},"children":[{"name":"School","size":30,"children":[]},{"name":"Food","children":[]}]},{"name":"11207","location":{"lat":21.029383,"lng":105.8080132},"children":[{"name":"School","size":33,"children":[]},{"name":"Food","children":[]}]},{"name":"11208","location":{"lat":21.029383,"lng":105.8080132},"children":[{"name":"School","size":23,"children":[]},{"name":"Food","children":[]}]},{"name":"11209","location":{"lat":21.029383,"lng":105.8080132},"children":[{"name":"School","size":7,"children":[]},{"name":"Food","size":10,"children":[]}]},{"name":"11210","location":{"lat":21.029383,"lng":105.8080132},"children":[{"name":"School","size":11,"children":[]},{"name":"Food","children":[]}]},{"name":"11211","location":{"lat":21.029383,"lng":105.8080132},"children":[{"name":"School","size":17,"children":[]},{"name":"Food","size":16,"children":[]}]},{"name":"11212","location":{"lat":21.029383,"lng":105.8080132},"children":[{"name":"School","size":35,"children":[]},{"name":"Food","children":[]}]},{"name":"11213","location":{"lat":21.029383,"lng":105.8080132},"children":[{"name":"School","size":15,"children":[]},{"name":"Food","children":[]}]},{"name":"11214","location":{"lat":21.029383,"lng":105.8080132},"children":[{"name":"School","size":15,"children":[]},{"name":"Food","children":[]}]},{"name":"11215","location":{"lat":21.029383,"lng":105.8080132},"children":[{"name":"School","size":17,"children":[]},{"name":"Food","size":11,"children":[]}]},{"name":"11216","location":{"lat":21.029383,"lng":105.8080132},"children":[{"name":"School","size":13,"children":[]},{"name":"Food","children":[]}]},{"name":"11217","location":{"lat":21.029383,"lng":105.8080132},"children":[{"name":"School","size":9,"children":[]},{"name":"Food","size":13,"children":[]}]},{"name":"11218","location":{"lat":21.029383,"lng":105.8080132},"children":[{"name":"School","size":5,"children":[]},{"name":"Food","children":[]}]},{"name":"11219","location":{"lat":21.029383,"lng":105.8080132},"children":[{"name":"School","size":7,"children":[]},{"name":"Food","size":1,"children":[]}]},{"name":"11220","location":{"lat":21.029383,"lng":105.8080132},"children":[{"name":"School","size":9,"children":[]},{"name":"Food","size":1,"children":[]}]},{"name":"11221","location":{"lat":21.029383,"lng":105.8080132},"children":[{"name":"School","size":30,"children":[]},{"name":"Food","children":[]}]},{"name":"11222","location":{"lat":21.029383,"lng":105.8080132},"children":[{"name":"School","size":8,"children":[]},{"name":"Food","size":5,"children":[]}]},{"name":"11223","location":{"lat":21.029383,"lng":105.8080132},"children":[{"name":"School","size":8,"children":[]},{"name":"Food","children":[]}]},{"name":"11224","location":{"lat":21.029383,"lng":105.8080132},"children":[{"name":"School","size":11,"children":[]},{"name":"Food","children":[]}]},{"name":"11225","location":{"lat":21.029383,"lng":105.8080132},"children":[{"name":"School","size":12,"children":[]},{"name":"Food","children":[]}]},{"name":"11226","location":{"lat":21.029383,"lng":105.8080132},"children":[{"name":"School","size":18,"children":[]},{"name":"Food","children":[]}]},{"name":"11228","location":{"lat":21.029383,"lng":105.8080132},"children":[{"name":"School","size":6,"children":[]},{"name":"Food","size":2,"children":[]}]},{"name":"11229","location":{"lat":21.029383,"lng":105.8080132},"children":[{"name":"School","size":8,"children":[]},{"name":"Food","size":2,"children":[]}]},{"name":"11230","location":{"lat":21.029383,"lng":105.8080132},"children":[{"name":"School","size":5,"children":[]},{"name":"Food","size":1,"children":[]}]},{"name":"11231","location":{"lat":21.029383,"lng":105.8080132},"children":[{"name":"School","size":10,"children":[]},{"name":"Food","size":9,"children":[]}]},{"name":"11232","location":{"lat":21.029383,"lng":105.8080132},"children":[{"name":"School","size":8,"children":[]},{"name":"Food","children":[]}]},{"name":"11233","location":{"lat":21.029383,"lng":105.8080132},"children":[{"name":"School","size":22,"children":[]},{"name":"Food","children":[]}]},{"name":"11234","location":{"lat":21.029383,"lng":105.8080132},"children":[{"name":"School","size":9,"children":[]},{"name":"Food","children":[]}]},{"name":"11235","location":{"lat":21.029383,"lng":105.8080132},"children":[{"name":"School","size":14,"children":[]},{"name":"Food","size":6,"children":[]}]},{"name":"11236","location":{"lat":21.029383,"lng":105.8080132},"children":[{"name":"School","size":21,"children":[]},{"name":"Food","children":[]}]},{"name":"11237","location":{"lat":21.029383,"lng":105.8080132},"children":[{"name":"School","size":12,"children":[]},{"name":"Food","children":[]}]},{"name":"11238","location":{"lat":21.029383,"lng":105.8080132},"children":[{"name":"School","size":12,"children":[]},{"name":"Food","size":1,"children":[]}]},{"name":"11239","location":{"lat":21.029383,"lng":105.8080132},"children":[{"name":"School","size":3,"children":[]},{"name":"Food","children":[]}]},{"name":"11354","location":{"lat":21.029383,"lng":105.8080132},"children":[{"name":"School","size":6,"children":[]},{"name":"Food","children":[]}]},{"name":"11355","location":{"lat":21.029383,"lng":105.8080132},"children":[{"name":"School","size":9,"children":[]},{"name":"Food","children":[]}]},{"name":"11356","location":{"lat":21.029383,"lng":105.8080132},"children":[{"name":"School","size":2,"children":[]},{"name":"Food","children":[]}]},{"name":"11357","location":{"lat":21.029383,"lng":105.8080132},"children":[{"name":"School","size":5,"children":[]},{"name":"Food","children":[]}]},{"name":"11358","location":{"lat":21.029383,"lng":105.8080132},"children":[{"name":"School","size":4,"children":[]},{"name":"Food","children":[]}]},{"name":"11360","location":{"lat":21.029383,"lng":105.8080132},"children":[{"name":"School","size":2,"children":[]},{"name":"Food","children":[]}]},{"name":"11361","location":{"lat":21.029383,"lng":105.8080132},"children":[{"name":"School","size":6,"children":[]},{"name":"Food","children":[]}]},{"name":"11362","location":{"lat":21.029383,"lng":105.8080132},"children":[{"name":"School","size":3,"children":[]},{"name":"Food","children":[]}]},{"name":"11363","location":{"lat":21.029383,"lng":105.8080132},"children":[{"name":"School","size":2,"children":[]},{"name":"Food","children":[]}]},{"name":"11364","location":{"lat":21.029383,"lng":105.8080132},"children":[{"name":"School","size":8,"children":[]},{"name":"Food","children":[]}]},{"name":"11365","location":{"lat":21.029383,"lng":105.8080132},"children":[{"name":"School","size":8,"children":[]},{"name":"Food","size":1,"children":[]}]},{"name":"11366","location":{"lat":21.029383,"lng":105.8080132},"children":[{"name":"School","size":5,"children":[]},{"name":"Food","size":1,"children":[]}]},{"name":"11367","location":{"lat":21.029383,"lng":105.8080132},"children":[{"name":"School","size":8,"children":[]},{"name":"Food","size":1,"children":[]}]},{"name":"11368","location":{"lat":21.029383,"lng":105.8080132},"children":[{"name":"School","size":9,"children":[]},{"name":"Food","children":[]}]},{"name":"11369","location":{"lat":21.029383,"lng":105.8080132},"children":[{"name":"School","size":3,"children":[]},{"name":"Food","children":[]}]},{"name":"11370","location":{"lat":21.029383,"lng":105.8080132},"children":[{"name":"School","size":1,"children":[]},{"name":"Food","children":[]}]},{"name":"11371","location":{"lat":21.029383,"lng":105.8080132},"children":[{"name":"School","size":0,"children":[]},{"name":"Food","children":[]}]},{"name":"11372","location":{"lat":21.029383,"lng":105.8080132},"children":[{"name":"School","size":9,"children":[]},{"name":"Food","size":3,"children":[]}]},{"name":"11373","location":{"lat":21.029383,"lng":105.8080132},"children":[{"name":"School","size":13,"children":[]},{"name":"Food","size":2,"children":[]}]},{"name":"11374","location":{"lat":21.029383,"lng":105.8080132},"children":[{"name":"School","size":5,"children":[]},{"name":"Food","size":3,"children":[]}]},{"name":"11375","location":{"lat":21.029383,"lng":105.8080132},"children":[{"name":"School","size":10,"children":[]},{"name":"Food","size":5,"children":[]}]},{"name":"11377","location":{"lat":21.029383,"lng":105.8080132},"children":[{"name":"School","size":6,"children":[]},{"name":"Food","size":4,"children":[]}]},{"name":"11378","location":{"lat":21.029383,"lng":105.8080132},"children":[{"name":"School","size":5,"children":[]},{"name":"Food","children":[]}]},{"name":"11379","location":{"lat":21.029383,"lng":105.8080132},"children":[{"name":"School","size":3,"children":[]},{"name":"Food","children":[]}]},{"name":"11385","location":{"lat":21.029383,"lng":105.8080132},"children":[{"name":"School","size":13,"children":[]},{"name":"Food","children":[]}]},{"name":"11411","location":{"lat":21.029383,"lng":105.8080132},"children":[{"name":"School","size":6,"children":[]},{"name":"Food","children":[]}]},{"name":"11412","location":{"lat":21.029383,"lng":105.8080132},"children":[{"name":"School","size":7,"children":[]},{"name":"Food","children":[]}]},{"name":"11413","location":{"lat":21.029383,"lng":105.8080132},"children":[{"name":"School","size":14,"children":[]},{"name":"Food","children":[]}]},{"name":"11414","location":{"lat":21.029383,"lng":105.8080132},"children":[{"name":"School","size":3,"children":[]},{"name":"Food","size":1,"children":[]}]},{"name":"11415","location":{"lat":21.029383,"lng":105.8080132},"children":[{"name":"School","size":1,"children":[]},{"name":"Food","children":[]}]},{"name":"11416","location":{"lat":21.029383,"lng":105.8080132},"children":[{"name":"School","size":3,"children":[]},{"name":"Food","children":[]}]},{"name":"11417","location":{"lat":21.029383,"lng":105.8080132},"children":[{"name":"School","size":6,"children":[]},{"name":"Food","children":[]}]},{"name":"11418","location":{"lat":21.029383,"lng":105.8080132},"children":[{"name":"School","size":8,"children":[]},{"name":"Food","children":[]}]},{"name":"11419","location":{"lat":21.029383,"lng":105.8080132},"children":[{"name":"School","size":3,"children":[]},{"name":"Food","children":[]}]},{"name":"11420","location":{"lat":21.029383,"lng":105.8080132},"children":[{"name":"School","size":7,"children":[]},{"name":"Food","children":[]}]},{"name":"11421","location":{"lat":21.029383,"lng":105.8080132},"children":[{"name":"School","size":3,"children":[]},{"name":"Food","children":[]}]},{"name":"11422","location":{"lat":21.029383,"lng":105.8080132},"children":[{"name":"School","size":4,"children":[]},{"name":"Food","children":[]}]},{"name":"11423","location":{"lat":21.029383,"lng":105.8080132},"children":[{"name":"School","size":4,"children":[]},{"name":"Food","children":[]}]},{"name":"11426","location":{"lat":21.029383,"lng":105.8080132},"children":[{"name":"School","size":7,"children":[]},{"name":"Food","children":[]}]},{"name":"11427","location":{"lat":21.029383,"lng":105.8080132},"children":[{"name":"School","size":3,"children":[]},{"name":"Food","children":[]}]},{"name":"11428","location":{"lat":21.029383,"lng":105.8080132},"children":[{"name":"School","size":4,"children":[]},{"name":"Food","children":[]}]},{"name":"11429","location":{"lat":21.029383,"lng":105.8080132},"children":[{"name":"School","size":1,"children":[]},{"name":"Food","children":[]}]},{"name":"11430","location":{"lat":21.029383,"lng":105.8080132},"children":[{"name":"School","size":0,"children":[]},{"name":"Food","children":[]}]},{"name":"11432","location":{"lat":21.029383,"lng":105.8080132},"children":[{"name":"School","size":13,"children":[]},{"name":"Food","children":[]}]},{"name":"11433","location":{"lat":21.029383,"lng":105.8080132},"children":[{"name":"School","size":7,"children":[]},{"name":"Food","children":[]}]},{"name":"11434","location":{"lat":21.029383,"lng":105.8080132},"children":[{"name":"School","size":11,"children":[]},{"name":"Food","children":[]}]},{"name":"11435","location":{"lat":21.029383,"lng":105.8080132},"children":[{"name":"School","size":6,"children":[]},{"name":"Food","children":[]}]},{"name":"11436","location":{"lat":21.029383,"lng":105.8080132},"children":[{"name":"School","size":3,"children":[]},{"name":"Food","children":[]}]},{"name":"11691","location":{"lat":21.029383,"lng":105.8080132},"children":[{"name":"School","size":14,"children":[]},{"name":"Food","children":[]}]},{"name":"11692","location":{"lat":21.029383,"lng":105.8080132},"children":[{"name":"School","size":3,"children":[]},{"name":"Food","children":[]}]},{"name":"11693","location":{"lat":21.029383,"lng":105.8080132},"children":[{"name":"School","size":2,"children":[]},{"name":"Food","children":[]}]},{"name":"11694","location":{"lat":21.029383,"lng":105.8080132},"children":[{"name":"School","size":9,"children":[]},{"name":"Food","size":1,"children":[]}]},{"name":"11697","location":{"lat":21.029383,"lng":105.8080132},"children":[{"name":"School","size":0,"children":[]},{"name":"Food","children":[]}]}]}]}